{
  "1950": [
    {
      "name_race": "British Grand Prix",
      "location": "Silverstone",
      "country": "UK",
      "lat": 52.0786,
      "lng": -1.01694,
      "winner_driver": "Nino Farina"
    },
    {
      "name_race": "Monaco Grand Prix",
      "location": "Monte-Carlo",
      "country": "Monaco",
      "lat": 43.7347,
      "lng": 7.42056,
      "winner_driver": "Juan Fangio"
    },
    {
      "name_race": "Indianapolis 500",
      "location": "Indianapolis",
      "country": "USA",
      "lat": 39.795,
      "lng": -86.2347,
      "winner_driver": "Johnnie Parsons"
    },
    {
      "name_race": "Swiss Grand Prix",
      "location": "Bern",
      "country": "Switzerland",
      "lat": 46.9589,
      "lng": 7.40194,
      "winner_driver": "Nino Farina"
    },
    {
      "name_race": "Belgian Grand Prix",
      "location": "Spa",
      "country": "Belgium",
      "lat": 50.4372,
      "lng": 5.97139,
      "winner_driver": "Juan Fangio"
    },
    {
      "name_race": "French Grand Prix",
      "location": "Reims",
      "country": "France",
      "lat": 49.2542,
      "lng": 3.93083,
      "winner_driver": "Juan Fangio"
    },
    {
      "name_race": "Italian Grand Prix",
      "location": "Monza",
      "country": "Italy",
      "lat": 45.6156,
      "lng": 9.28111,
      "winner_driver": "Nino Farina"
    }
  ],
  "1951": [
    {
      "name_race": "Swiss Grand Prix",
      "location": "Bern",
      "country": "Switzerland",
      "lat": 46.9589,
      "lng": 7.40194,
      "winner_driver": "Juan Fangio"
    },
    {
      "name_race": "Indianapolis 500",
      "location": "Indianapolis",
      "country": "USA",
      "lat": 39.795,
      "lng": -86.2347,
      "winner_driver": "Lee Wallard"
    },
    {
      "name_race": "Belgian Grand Prix",
      "location": "Spa",
      "country": "Belgium",
      "lat": 50.4372,
      "lng": 5.97139,
      "winner_driver": "Nino Farina"
    },
    {
      "name_race": "French Grand Prix",
      "location": "Reims",
      "country": "France",
      "lat": 49.2542,
      "lng": 3.93083,
      "winner_driver": "Luigi Fagioli"
    },
    {
      "name_race": "French Grand Prix",
      "location": "Reims",
      "country": "France",
      "lat": 49.2542,
      "lng": 3.93083,
      "winner_driver": "Juan Fangio"
    },
    {
      "name_race": "British Grand Prix",
      "location": "Silverstone",
      "country": "UK",
      "lat": 52.0786,
      "lng": -1.01694,
      "winner_driver": "José Froilán González"
    },
    {
      "name_race": "German Grand Prix",
      "location": "Nürburg",
      "country": "Germany",
      "lat": 50.3356,
      "lng": 6.9475,
      "winner_driver": "Alberto Ascari"
    },
    {
      "name_race": "Italian Grand Prix",
      "location": "Monza",
      "country": "Italy",
      "lat": 45.6156,
      "lng": 9.28111,
      "winner_driver": "Alberto Ascari"
    },
    {
      "name_race": "Spanish Grand Prix",
      "location": "Barcelona",
      "country": "Spain",
      "lat": 41.3903,
      "lng": 2.11667,
      "winner_driver": "Juan Fangio"
    }
  ],
  "1952": [
    {
      "name_race": "Swiss Grand Prix",
      "location": "Bern",
      "country": "Switzerland",
      "lat": 46.9589,
      "lng": 7.40194,
      "winner_driver": "Piero Taruffi"
    },
    {
      "name_race": "Indianapolis 500",
      "location": "Indianapolis",
      "country": "USA",
      "lat": 39.795,
      "lng": -86.2347,
      "winner_driver": "Troy Ruttman"
    },
    {
      "name_race": "Belgian Grand Prix",
      "location": "Spa",
      "country": "Belgium",
      "lat": 50.4372,
      "lng": 5.97139,
      "winner_driver": "Alberto Ascari"
    },
    {
      "name_race": "French Grand Prix",
      "location": "Rouen",
      "country": "France",
      "lat": 49.3306,
      "lng": 1.00458,
      "winner_driver": "Alberto Ascari"
    },
    {
      "name_race": "British Grand Prix",
      "location": "Silverstone",
      "country": "UK",
      "lat": 52.0786,
      "lng": -1.01694,
      "winner_driver": "Alberto Ascari"
    },
    {
      "name_race": "German Grand Prix",
      "location": "Nürburg",
      "country": "Germany",
      "lat": 50.3356,
      "lng": 6.9475,
      "winner_driver": "Alberto Ascari"
    },
    {
      "name_race": "Dutch Grand Prix",
      "location": "Zandvoort",
      "country": "Netherlands",
      "lat": 52.3888,
      "lng": 4.54092,
      "winner_driver": "Alberto Ascari"
    },
    {
      "name_race": "Italian Grand Prix",
      "location": "Monza",
      "country": "Italy",
      "lat": 45.6156,
      "lng": 9.28111,
      "winner_driver": "Alberto Ascari"
    }
  ],
  "1953": [
    {
      "name_race": "Argentine Grand Prix",
      "location": "Buenos Aires",
      "country": "Argentina",
      "lat": -34.6943,
      "lng": -58.4593,
      "winner_driver": "Alberto Ascari"
    },
    {
      "name_race": "Indianapolis 500",
      "location": "Indianapolis",
      "country": "USA",
      "lat": 39.795,
      "lng": -86.2347,
      "winner_driver": "Bill Vukovich"
    },
    {
      "name_race": "Dutch Grand Prix",
      "location": "Zandvoort",
      "country": "Netherlands",
      "lat": 52.3888,
      "lng": 4.54092,
      "winner_driver": "Alberto Ascari"
    },
    {
      "name_race": "Belgian Grand Prix",
      "location": "Spa",
      "country": "Belgium",
      "lat": 50.4372,
      "lng": 5.97139,
      "winner_driver": "Alberto Ascari"
    },
    {
      "name_race": "French Grand Prix",
      "location": "Reims",
      "country": "France",
      "lat": 49.2542,
      "lng": 3.93083,
      "winner_driver": "Mike Hawthorn"
    },
    {
      "name_race": "British Grand Prix",
      "location": "Silverstone",
      "country": "UK",
      "lat": 52.0786,
      "lng": -1.01694,
      "winner_driver": "Alberto Ascari"
    },
    {
      "name_race": "German Grand Prix",
      "location": "Nürburg",
      "country": "Germany",
      "lat": 50.3356,
      "lng": 6.9475,
      "winner_driver": "Nino Farina"
    },
    {
      "name_race": "Swiss Grand Prix",
      "location": "Bern",
      "country": "Switzerland",
      "lat": 46.9589,
      "lng": 7.40194,
      "winner_driver": "Alberto Ascari"
    },
    {
      "name_race": "Italian Grand Prix",
      "location": "Monza",
      "country": "Italy",
      "lat": 45.6156,
      "lng": 9.28111,
      "winner_driver": "Juan Fangio"
    }
  ],
  "1954": [
    {
      "name_race": "Argentine Grand Prix",
      "location": "Buenos Aires",
      "country": "Argentina",
      "lat": -34.6943,
      "lng": -58.4593,
      "winner_driver": "Juan Fangio"
    },
    {
      "name_race": "Indianapolis 500",
      "location": "Indianapolis",
      "country": "USA",
      "lat": 39.795,
      "lng": -86.2347,
      "winner_driver": "Bill Vukovich"
    },
    {
      "name_race": "Belgian Grand Prix",
      "location": "Spa",
      "country": "Belgium",
      "lat": 50.4372,
      "lng": 5.97139,
      "winner_driver": "Juan Fangio"
    },
    {
      "name_race": "French Grand Prix",
      "location": "Reims",
      "country": "France",
      "lat": 49.2542,
      "lng": 3.93083,
      "winner_driver": "Juan Fangio"
    },
    {
      "name_race": "British Grand Prix",
      "location": "Silverstone",
      "country": "UK",
      "lat": 52.0786,
      "lng": -1.01694,
      "winner_driver": "José Froilán González"
    },
    {
      "name_race": "German Grand Prix",
      "location": "Nürburg",
      "country": "Germany",
      "lat": 50.3356,
      "lng": 6.9475,
      "winner_driver": "Juan Fangio"
    },
    {
      "name_race": "Swiss Grand Prix",
      "location": "Bern",
      "country": "Switzerland",
      "lat": 46.9589,
      "lng": 7.40194,
      "winner_driver": "Juan Fangio"
    },
    {
      "name_race": "Italian Grand Prix",
      "location": "Monza",
      "country": "Italy",
      "lat": 45.6156,
      "lng": 9.28111,
      "winner_driver": "Juan Fangio"
    },
    {
      "name_race": "Spanish Grand Prix",
      "location": "Barcelona",
      "country": "Spain",
      "lat": 41.3903,
      "lng": 2.11667,
      "winner_driver": "Mike Hawthorn"
    }
  ],
  "1955": [
    {
      "name_race": "Argentine Grand Prix",
      "location": "Buenos Aires",
      "country": "Argentina",
      "lat": -34.6943,
      "lng": -58.4593,
      "winner_driver": "Juan Fangio"
    },
    {
      "name_race": "Monaco Grand Prix",
      "location": "Monte-Carlo",
      "country": "Monaco",
      "lat": 43.7347,
      "lng": 7.42056,
      "winner_driver": "Maurice Trintignant"
    },
    {
      "name_race": "Indianapolis 500",
      "location": "Indianapolis",
      "country": "USA",
      "lat": 39.795,
      "lng": -86.2347,
      "winner_driver": "Bob Sweikert"
    },
    {
      "name_race": "Belgian Grand Prix",
      "location": "Spa",
      "country": "Belgium",
      "lat": 50.4372,
      "lng": 5.97139,
      "winner_driver": "Juan Fangio"
    },
    {
      "name_race": "Dutch Grand Prix",
      "location": "Zandvoort",
      "country": "Netherlands",
      "lat": 52.3888,
      "lng": 4.54092,
      "winner_driver": "Juan Fangio"
    },
    {
      "name_race": "British Grand Prix",
      "location": "Liverpool",
      "country": "UK",
      "lat": 53.4769,
      "lng": -2.94056,
      "winner_driver": "Stirling Moss"
    },
    {
      "name_race": "Italian Grand Prix",
      "location": "Monza",
      "country": "Italy",
      "lat": 45.6156,
      "lng": 9.28111,
      "winner_driver": "Juan Fangio"
    }
  ],
  "1956": [
    {
      "name_race": "Argentine Grand Prix",
      "location": "Buenos Aires",
      "country": "Argentina",
      "lat": -34.6943,
      "lng": -58.4593,
      "winner_driver": "Luigi Musso"
    },
    {
      "name_race": "Argentine Grand Prix",
      "location": "Buenos Aires",
      "country": "Argentina",
      "lat": -34.6943,
      "lng": -58.4593,
      "winner_driver": "Juan Fangio"
    },
    {
      "name_race": "Monaco Grand Prix",
      "location": "Monte-Carlo",
      "country": "Monaco",
      "lat": 43.7347,
      "lng": 7.42056,
      "winner_driver": "Stirling Moss"
    },
    {
      "name_race": "Indianapolis 500",
      "location": "Indianapolis",
      "country": "USA",
      "lat": 39.795,
      "lng": -86.2347,
      "winner_driver": "Pat Flaherty"
    },
    {
      "name_race": "Belgian Grand Prix",
      "location": "Spa",
      "country": "Belgium",
      "lat": 50.4372,
      "lng": 5.97139,
      "winner_driver": "Peter Collins"
    },
    {
      "name_race": "French Grand Prix",
      "location": "Reims",
      "country": "France",
      "lat": 49.2542,
      "lng": 3.93083,
      "winner_driver": "Peter Collins"
    },
    {
      "name_race": "British Grand Prix",
      "location": "Silverstone",
      "country": "UK",
      "lat": 52.0786,
      "lng": -1.01694,
      "winner_driver": "Juan Fangio"
    },
    {
      "name_race": "German Grand Prix",
      "location": "Nürburg",
      "country": "Germany",
      "lat": 50.3356,
      "lng": 6.9475,
      "winner_driver": "Juan Fangio"
    },
    {
      "name_race": "Italian Grand Prix",
      "location": "Monza",
      "country": "Italy",
      "lat": 45.6156,
      "lng": 9.28111,
      "winner_driver": "Stirling Moss"
    }
  ],
  "1957": [
    {
      "name_race": "Argentine Grand Prix",
      "location": "Buenos Aires",
      "country": "Argentina",
      "lat": -34.6943,
      "lng": -58.4593,
      "winner_driver": "Juan Fangio"
    },
    {
      "name_race": "Monaco Grand Prix",
      "location": "Monte-Carlo",
      "country": "Monaco",
      "lat": 43.7347,
      "lng": 7.42056,
      "winner_driver": "Juan Fangio"
    },
    {
      "name_race": "Indianapolis 500",
      "location": "Indianapolis",
      "country": "USA",
      "lat": 39.795,
      "lng": -86.2347,
      "winner_driver": "Sam Hanks"
    },
    {
      "name_race": "French Grand Prix",
      "location": "Rouen",
      "country": "France",
      "lat": 49.3306,
      "lng": 1.00458,
      "winner_driver": "Juan Fangio"
    },
    {
      "name_race": "British Grand Prix",
      "location": "Liverpool",
      "country": "UK",
      "lat": 53.4769,
      "lng": -2.94056,
      "winner_driver": "Tony Brooks"
    },
    {
      "name_race": "British Grand Prix",
      "location": "Liverpool",
      "country": "UK",
      "lat": 53.4769,
      "lng": -2.94056,
      "winner_driver": "Stirling Moss"
    },
    {
      "name_race": "German Grand Prix",
      "location": "Nürburg",
      "country": "Germany",
      "lat": 50.3356,
      "lng": 6.9475,
      "winner_driver": "Juan Fangio"
    },
    {
      "name_race": "Pescara Grand Prix",
      "location": "Pescara",
      "country": "Italy",
      "lat": 42.475,
      "lng": 14.1508,
      "winner_driver": "Stirling Moss"
    },
    {
      "name_race": "Italian Grand Prix",
      "location": "Monza",
      "country": "Italy",
      "lat": 45.6156,
      "lng": 9.28111,
      "winner_driver": "Stirling Moss"
    }
  ],
  "1958": [
    {
      "name_race": "Argentine Grand Prix",
      "location": "Buenos Aires",
      "country": "Argentina",
      "lat": -34.6943,
      "lng": -58.4593,
      "winner_driver": "Stirling Moss"
    },
    {
      "name_race": "Monaco Grand Prix",
      "location": "Monte-Carlo",
      "country": "Monaco",
      "lat": 43.7347,
      "lng": 7.42056,
      "winner_driver": "Maurice Trintignant"
    },
    {
      "name_race": "Dutch Grand Prix",
      "location": "Zandvoort",
      "country": "Netherlands",
      "lat": 52.3888,
      "lng": 4.54092,
      "winner_driver": "Stirling Moss"
    },
    {
      "name_race": "Indianapolis 500",
      "location": "Indianapolis",
      "country": "USA",
      "lat": 39.795,
      "lng": -86.2347,
      "winner_driver": "Jimmy Bryan"
    },
    {
      "name_race": "Belgian Grand Prix",
      "location": "Spa",
      "country": "Belgium",
      "lat": 50.4372,
      "lng": 5.97139,
      "winner_driver": "Tony Brooks"
    },
    {
      "name_race": "French Grand Prix",
      "location": "Reims",
      "country": "France",
      "lat": 49.2542,
      "lng": 3.93083,
      "winner_driver": "Mike Hawthorn"
    },
    {
      "name_race": "British Grand Prix",
      "location": "Silverstone",
      "country": "UK",
      "lat": 52.0786,
      "lng": -1.01694,
      "winner_driver": "Peter Collins"
    },
    {
      "name_race": "German Grand Prix",
      "location": "Nürburg",
      "country": "Germany",
      "lat": 50.3356,
      "lng": 6.9475,
      "winner_driver": "Tony Brooks"
    },
    {
      "name_race": "Portuguese Grand Prix",
      "location": "Oporto",
      "country": "Portugal",
      "lat": 41.1705,
      "lng": -8.67325,
      "winner_driver": "Stirling Moss"
    },
    {
      "name_race": "Italian Grand Prix",
      "location": "Monza",
      "country": "Italy",
      "lat": 45.6156,
      "lng": 9.28111,
      "winner_driver": "Tony Brooks"
    },
    {
      "name_race": "Moroccan Grand Prix",
      "location": "Casablanca",
      "country": "Morocco",
      "lat": 33.5786,
      "lng": -7.6875,
      "winner_driver": "Stirling Moss"
    }
  ],
  "1959": [
    {
      "name_race": "Monaco Grand Prix",
      "location": "Monte-Carlo",
      "country": "Monaco",
      "lat": 43.7347,
      "lng": 7.42056,
      "winner_driver": "Jack Brabham"
    },
    {
      "name_race": "Indianapolis 500",
      "location": "Indianapolis",
      "country": "USA",
      "lat": 39.795,
      "lng": -86.2347,
      "winner_driver": "Rodger Ward"
    },
    {
      "name_race": "Dutch Grand Prix",
      "location": "Zandvoort",
      "country": "Netherlands",
      "lat": 52.3888,
      "lng": 4.54092,
      "winner_driver": "Jo Bonnier"
    },
    {
      "name_race": "French Grand Prix",
      "location": "Reims",
      "country": "France",
      "lat": 49.2542,
      "lng": 3.93083,
      "winner_driver": "Tony Brooks"
    },
    {
      "name_race": "British Grand Prix",
      "location": "Liverpool",
      "country": "UK",
      "lat": 53.4769,
      "lng": -2.94056,
      "winner_driver": "Jack Brabham"
    },
    {
      "name_race": "German Grand Prix",
      "location": "Berlin",
      "country": "Germany",
      "lat": 52.4806,
      "lng": 13.2514,
      "winner_driver": "Tony Brooks"
    },
    {
      "name_race": "Portuguese Grand Prix",
      "location": "Lisbon",
      "country": "Portugal",
      "lat": 38.7197,
      "lng": -9.20306,
      "winner_driver": "Stirling Moss"
    },
    {
      "name_race": "Italian Grand Prix",
      "location": "Monza",
      "country": "Italy",
      "lat": 45.6156,
      "lng": 9.28111,
      "winner_driver": "Stirling Moss"
    },
    {
      "name_race": "United States Grand Prix",
      "location": "Florida",
      "country": "USA",
      "lat": 27.4547,
      "lng": -81.3483,
      "winner_driver": "Bruce McLaren"
    }
  ],
  "1960": [
    {
      "name_race": "Argentine Grand Prix",
      "location": "Buenos Aires",
      "country": "Argentina",
      "lat": -34.6943,
      "lng": -58.4593,
      "winner_driver": "Bruce McLaren"
    },
    {
      "name_race": "Monaco Grand Prix",
      "location": "Monte-Carlo",
      "country": "Monaco",
      "lat": 43.7347,
      "lng": 7.42056,
      "winner_driver": "Stirling Moss"
    },
    {
      "name_race": "Indianapolis 500",
      "location": "Indianapolis",
      "country": "USA",
      "lat": 39.795,
      "lng": -86.2347,
      "winner_driver": "Jim Rathmann"
    },
    {
      "name_race": "Dutch Grand Prix",
      "location": "Zandvoort",
      "country": "Netherlands",
      "lat": 52.3888,
      "lng": 4.54092,
      "winner_driver": "Jack Brabham"
    },
    {
      "name_race": "Belgian Grand Prix",
      "location": "Spa",
      "country": "Belgium",
      "lat": 50.4372,
      "lng": 5.97139,
      "winner_driver": "Jack Brabham"
    },
    {
      "name_race": "French Grand Prix",
      "location": "Reims",
      "country": "France",
      "lat": 49.2542,
      "lng": 3.93083,
      "winner_driver": "Jack Brabham"
    },
    {
      "name_race": "British Grand Prix",
      "location": "Silverstone",
      "country": "UK",
      "lat": 52.0786,
      "lng": -1.01694,
      "winner_driver": "Jack Brabham"
    },
    {
      "name_race": "Portuguese Grand Prix",
      "location": "Oporto",
      "country": "Portugal",
      "lat": 41.1705,
      "lng": -8.67325,
      "winner_driver": "Jack Brabham"
    },
    {
      "name_race": "Italian Grand Prix",
      "location": "Monza",
      "country": "Italy",
      "lat": 45.6156,
      "lng": 9.28111,
      "winner_driver": "Phil Hill"
    },
    {
      "name_race": "United States Grand Prix",
      "location": "California",
      "country": "USA",
      "lat": 33.937,
      "lng": -117.273,
      "winner_driver": "Stirling Moss"
    }
  ],
  "1961": [
    {
      "name_race": "Monaco Grand Prix",
      "location": "Monte-Carlo",
      "country": "Monaco",
      "lat": 43.7347,
      "lng": 7.42056,
      "winner_driver": "Stirling Moss"
    },
    {
      "name_race": "Dutch Grand Prix",
      "location": "Zandvoort",
      "country": "Netherlands",
      "lat": 52.3888,
      "lng": 4.54092,
      "winner_driver": "Wolfgang von Trips"
    },
    {
      "name_race": "Belgian Grand Prix",
      "location": "Spa",
      "country": "Belgium",
      "lat": 50.4372,
      "lng": 5.97139,
      "winner_driver": "Phil Hill"
    },
    {
      "name_race": "French Grand Prix",
      "location": "Reims",
      "country": "France",
      "lat": 49.2542,
      "lng": 3.93083,
      "winner_driver": "Giancarlo Baghetti"
    },
    {
      "name_race": "British Grand Prix",
      "location": "Liverpool",
      "country": "UK",
      "lat": 53.4769,
      "lng": -2.94056,
      "winner_driver": "Wolfgang von Trips"
    },
    {
      "name_race": "German Grand Prix",
      "location": "Nürburg",
      "country": "Germany",
      "lat": 50.3356,
      "lng": 6.9475,
      "winner_driver": "Stirling Moss"
    },
    {
      "name_race": "Italian Grand Prix",
      "location": "Monza",
      "country": "Italy",
      "lat": 45.6156,
      "lng": 9.28111,
      "winner_driver": "Phil Hill"
    },
    {
      "name_race": "United States Grand Prix",
      "location": "New York State",
      "country": "USA",
      "lat": 42.3369,
      "lng": -76.9272,
      "winner_driver": "Innes Ireland"
    }
  ],
  "1962": [
    {
      "name_race": "Dutch Grand Prix",
      "location": "Zandvoort",
      "country": "Netherlands",
      "lat": 52.3888,
      "lng": 4.54092,
      "winner_driver": "Graham Hill"
    },
    {
      "name_race": "Monaco Grand Prix",
      "location": "Monte-Carlo",
      "country": "Monaco",
      "lat": 43.7347,
      "lng": 7.42056,
      "winner_driver": "Bruce McLaren"
    },
    {
      "name_race": "Belgian Grand Prix",
      "location": "Spa",
      "country": "Belgium",
      "lat": 50.4372,
      "lng": 5.97139,
      "winner_driver": "Jim Clark"
    },
    {
      "name_race": "French Grand Prix",
      "location": "Rouen",
      "country": "France",
      "lat": 49.3306,
      "lng": 1.00458,
      "winner_driver": "Dan Gurney"
    },
    {
      "name_race": "British Grand Prix",
      "location": "Liverpool",
      "country": "UK",
      "lat": 53.4769,
      "lng": -2.94056,
      "winner_driver": "Jim Clark"
    },
    {
      "name_race": "German Grand Prix",
      "location": "Nürburg",
      "country": "Germany",
      "lat": 50.3356,
      "lng": 6.9475,
      "winner_driver": "Graham Hill"
    },
    {
      "name_race": "Italian Grand Prix",
      "location": "Monza",
      "country": "Italy",
      "lat": 45.6156,
      "lng": 9.28111,
      "winner_driver": "Graham Hill"
    },
    {
      "name_race": "United States Grand Prix",
      "location": "New York State",
      "country": "USA",
      "lat": 42.3369,
      "lng": -76.9272,
      "winner_driver": "Jim Clark"
    },
    {
      "name_race": "South African Grand Prix",
      "location": "Eastern Cape Province",
      "country": "South Africa",
      "lat": -33.0486,
      "lng": 27.8736,
      "winner_driver": "Graham Hill"
    }
  ],
  "1963": [
    {
      "name_race": "Monaco Grand Prix",
      "location": "Monte-Carlo",
      "country": "Monaco",
      "lat": 43.7347,
      "lng": 7.42056,
      "winner_driver": "Graham Hill"
    },
    {
      "name_race": "Belgian Grand Prix",
      "location": "Spa",
      "country": "Belgium",
      "lat": 50.4372,
      "lng": 5.97139,
      "winner_driver": "Jim Clark"
    },
    {
      "name_race": "Dutch Grand Prix",
      "location": "Zandvoort",
      "country": "Netherlands",
      "lat": 52.3888,
      "lng": 4.54092,
      "winner_driver": "Jim Clark"
    },
    {
      "name_race": "French Grand Prix",
      "location": "Reims",
      "country": "France",
      "lat": 49.2542,
      "lng": 3.93083,
      "winner_driver": "Jim Clark"
    },
    {
      "name_race": "British Grand Prix",
      "location": "Silverstone",
      "country": "UK",
      "lat": 52.0786,
      "lng": -1.01694,
      "winner_driver": "Jim Clark"
    },
    {
      "name_race": "German Grand Prix",
      "location": "Nürburg",
      "country": "Germany",
      "lat": 50.3356,
      "lng": 6.9475,
      "winner_driver": "John Surtees"
    },
    {
      "name_race": "Italian Grand Prix",
      "location": "Monza",
      "country": "Italy",
      "lat": 45.6156,
      "lng": 9.28111,
      "winner_driver": "Jim Clark"
    },
    {
      "name_race": "United States Grand Prix",
      "location": "New York State",
      "country": "USA",
      "lat": 42.3369,
      "lng": -76.9272,
      "winner_driver": "Graham Hill"
    },
    {
      "name_race": "Mexican Grand Prix",
      "location": "Mexico City",
      "country": "Mexico",
      "lat": 19.4042,
      "lng": -99.0907,
      "winner_driver": "Jim Clark"
    },
    {
      "name_race": "South African Grand Prix",
      "location": "Eastern Cape Province",
      "country": "South Africa",
      "lat": -33.0486,
      "lng": 27.8736,
      "winner_driver": "Jim Clark"
    }
  ],
  "1964": [
    {
      "name_race": "Monaco Grand Prix",
      "location": "Monte-Carlo",
      "country": "Monaco",
      "lat": 43.7347,
      "lng": 7.42056,
      "winner_driver": "Graham Hill"
    },
    {
      "name_race": "Dutch Grand Prix",
      "location": "Zandvoort",
      "country": "Netherlands",
      "lat": 52.3888,
      "lng": 4.54092,
      "winner_driver": "Jim Clark"
    },
    {
      "name_race": "Belgian Grand Prix",
      "location": "Spa",
      "country": "Belgium",
      "lat": 50.4372,
      "lng": 5.97139,
      "winner_driver": "Jim Clark"
    },
    {
      "name_race": "French Grand Prix",
      "location": "Rouen",
      "country": "France",
      "lat": 49.3306,
      "lng": 1.00458,
      "winner_driver": "Dan Gurney"
    },
    {
      "name_race": "British Grand Prix",
      "location": "Kent",
      "country": "UK",
      "lat": 51.3569,
      "lng": 0.263056,
      "winner_driver": "Jim Clark"
    },
    {
      "name_race": "German Grand Prix",
      "location": "Nürburg",
      "country": "Germany",
      "lat": 50.3356,
      "lng": 6.9475,
      "winner_driver": "John Surtees"
    },
    {
      "name_race": "Austrian Grand Prix",
      "location": "Styria",
      "country": "Austria",
      "lat": 47.2039,
      "lng": 14.7478,
      "winner_driver": "Lorenzo Bandini"
    },
    {
      "name_race": "Italian Grand Prix",
      "location": "Monza",
      "country": "Italy",
      "lat": 45.6156,
      "lng": 9.28111,
      "winner_driver": "John Surtees"
    },
    {
      "name_race": "United States Grand Prix",
      "location": "New York State",
      "country": "USA",
      "lat": 42.3369,
      "lng": -76.9272,
      "winner_driver": "Graham Hill"
    },
    {
      "name_race": "Mexican Grand Prix",
      "location": "Mexico City",
      "country": "Mexico",
      "lat": 19.4042,
      "lng": -99.0907,
      "winner_driver": "Dan Gurney"
    }
  ],
  "1965": [
    {
      "name_race": "South African Grand Prix",
      "location": "Eastern Cape Province",
      "country": "South Africa",
      "lat": -33.0486,
      "lng": 27.8736,
      "winner_driver": "Jim Clark"
    },
    {
      "name_race": "Monaco Grand Prix",
      "location": "Monte-Carlo",
      "country": "Monaco",
      "lat": 43.7347,
      "lng": 7.42056,
      "winner_driver": "Graham Hill"
    },
    {
      "name_race": "Belgian Grand Prix",
      "location": "Spa",
      "country": "Belgium",
      "lat": 50.4372,
      "lng": 5.97139,
      "winner_driver": "Jim Clark"
    },
    {
      "name_race": "French Grand Prix",
      "location": "Clermont-Ferrand",
      "country": "France",
      "lat": 45.7472,
      "lng": 3.03889,
      "winner_driver": "Jim Clark"
    },
    {
      "name_race": "British Grand Prix",
      "location": "Silverstone",
      "country": "UK",
      "lat": 52.0786,
      "lng": -1.01694,
      "winner_driver": "Jim Clark"
    },
    {
      "name_race": "Dutch Grand Prix",
      "location": "Zandvoort",
      "country": "Netherlands",
      "lat": 52.3888,
      "lng": 4.54092,
      "winner_driver": "Jim Clark"
    },
    {
      "name_race": "German Grand Prix",
      "location": "Nürburg",
      "country": "Germany",
      "lat": 50.3356,
      "lng": 6.9475,
      "winner_driver": "Jim Clark"
    },
    {
      "name_race": "Italian Grand Prix",
      "location": "Monza",
      "country": "Italy",
      "lat": 45.6156,
      "lng": 9.28111,
      "winner_driver": "Jackie Stewart"
    },
    {
      "name_race": "United States Grand Prix",
      "location": "New York State",
      "country": "USA",
      "lat": 42.3369,
      "lng": -76.9272,
      "winner_driver": "Graham Hill"
    },
    {
      "name_race": "Mexican Grand Prix",
      "location": "Mexico City",
      "country": "Mexico",
      "lat": 19.4042,
      "lng": -99.0907,
      "winner_driver": "Richie Ginther"
    }
  ],
  "1966": [
    {
      "name_race": "Monaco Grand Prix",
      "location": "Monte-Carlo",
      "country": "Monaco",
      "lat": 43.7347,
      "lng": 7.42056,
      "winner_driver": "Jackie Stewart"
    },
    {
      "name_race": "Belgian Grand Prix",
      "location": "Spa",
      "country": "Belgium",
      "lat": 50.4372,
      "lng": 5.97139,
      "winner_driver": "John Surtees"
    },
    {
      "name_race": "French Grand Prix",
      "location": "Reims",
      "country": "France",
      "lat": 49.2542,
      "lng": 3.93083,
      "winner_driver": "Jack Brabham"
    },
    {
      "name_race": "British Grand Prix",
      "location": "Kent",
      "country": "UK",
      "lat": 51.3569,
      "lng": 0.263056,
      "winner_driver": "Jack Brabham"
    },
    {
      "name_race": "Dutch Grand Prix",
      "location": "Zandvoort",
      "country": "Netherlands",
      "lat": 52.3888,
      "lng": 4.54092,
      "winner_driver": "Jack Brabham"
    },
    {
      "name_race": "German Grand Prix",
      "location": "Nürburg",
      "country": "Germany",
      "lat": 50.3356,
      "lng": 6.9475,
      "winner_driver": "Jack Brabham"
    },
    {
      "name_race": "Italian Grand Prix",
      "location": "Monza",
      "country": "Italy",
      "lat": 45.6156,
      "lng": 9.28111,
      "winner_driver": "Ludovico Scarfiotti"
    },
    {
      "name_race": "United States Grand Prix",
      "location": "New York State",
      "country": "USA",
      "lat": 42.3369,
      "lng": -76.9272,
      "winner_driver": "Jim Clark"
    },
    {
      "name_race": "Mexican Grand Prix",
      "location": "Mexico City",
      "country": "Mexico",
      "lat": 19.4042,
      "lng": -99.0907,
      "winner_driver": "John Surtees"
    }
  ],
  "1967": [
    {
      "name_race": "South African Grand Prix",
      "location": "Midrand",
      "country": "South Africa",
      "lat": -25.9894,
      "lng": 28.0767,
      "winner_driver": "Pedro Rodríguez"
    },
    {
      "name_race": "Monaco Grand Prix",
      "location": "Monte-Carlo",
      "country": "Monaco",
      "lat": 43.7347,
      "lng": 7.42056,
      "winner_driver": "Denny Hulme"
    },
    {
      "name_race": "Dutch Grand Prix",
      "location": "Zandvoort",
      "country": "Netherlands",
      "lat": 52.3888,
      "lng": 4.54092,
      "winner_driver": "Jim Clark"
    },
    {
      "name_race": "Belgian Grand Prix",
      "location": "Spa",
      "country": "Belgium",
      "lat": 50.4372,
      "lng": 5.97139,
      "winner_driver": "Dan Gurney"
    },
    {
      "name_race": "French Grand Prix",
      "location": "Le Mans",
      "country": "France",
      "lat": 47.95,
      "lng": 0.224231,
      "winner_driver": "Jack Brabham"
    },
    {
      "name_race": "British Grand Prix",
      "location": "Silverstone",
      "country": "UK",
      "lat": 52.0786,
      "lng": -1.01694,
      "winner_driver": "Jim Clark"
    },
    {
      "name_race": "German Grand Prix",
      "location": "Nürburg",
      "country": "Germany",
      "lat": 50.3356,
      "lng": 6.9475,
      "winner_driver": "Denny Hulme"
    },
    {
      "name_race": "Canadian Grand Prix",
      "location": "Ontario",
      "country": "Canada",
      "lat": 44.0481,
      "lng": -78.6756,
      "winner_driver": "Jack Brabham"
    },
    {
      "name_race": "Italian Grand Prix",
      "location": "Monza",
      "country": "Italy",
      "lat": 45.6156,
      "lng": 9.28111,
      "winner_driver": "John Surtees"
    },
    {
      "name_race": "United States Grand Prix",
      "location": "New York State",
      "country": "USA",
      "lat": 42.3369,
      "lng": -76.9272,
      "winner_driver": "Jim Clark"
    },
    {
      "name_race": "Mexican Grand Prix",
      "location": "Mexico City",
      "country": "Mexico",
      "lat": 19.4042,
      "lng": -99.0907,
      "winner_driver": "Jim Clark"
    }
  ],
  "1968": [
    {
      "name_race": "South African Grand Prix",
      "location": "Midrand",
      "country": "South Africa",
      "lat": -25.9894,
      "lng": 28.0767,
      "winner_driver": "Jim Clark"
    },
    {
      "name_race": "Spanish Grand Prix",
      "location": "Madrid",
      "country": "Spain",
      "lat": 40.6171,
      "lng": -3.58558,
      "winner_driver": "Graham Hill"
    },
    {
      "name_race": "Monaco Grand Prix",
      "location": "Monte-Carlo",
      "country": "Monaco",
      "lat": 43.7347,
      "lng": 7.42056,
      "winner_driver": "Graham Hill"
    },
    {
      "name_race": "Belgian Grand Prix",
      "location": "Spa",
      "country": "Belgium",
      "lat": 50.4372,
      "lng": 5.97139,
      "winner_driver": "Bruce McLaren"
    },
    {
      "name_race": "Dutch Grand Prix",
      "location": "Zandvoort",
      "country": "Netherlands",
      "lat": 52.3888,
      "lng": 4.54092,
      "winner_driver": "Jackie Stewart"
    },
    {
      "name_race": "French Grand Prix",
      "location": "Rouen",
      "country": "France",
      "lat": 49.3306,
      "lng": 1.00458,
      "winner_driver": "Jacky Ickx"
    },
    {
      "name_race": "British Grand Prix",
      "location": "Kent",
      "country": "UK",
      "lat": 51.3569,
      "lng": 0.263056,
      "winner_driver": "Jo Siffert"
    },
    {
      "name_race": "German Grand Prix",
      "location": "Nürburg",
      "country": "Germany",
      "lat": 50.3356,
      "lng": 6.9475,
      "winner_driver": "Jackie Stewart"
    },
    {
      "name_race": "Italian Grand Prix",
      "location": "Monza",
      "country": "Italy",
      "lat": 45.6156,
      "lng": 9.28111,
      "winner_driver": "Denny Hulme"
    },
    {
      "name_race": "Canadian Grand Prix",
      "location": "Quebec",
      "country": "Canada",
      "lat": 46.1877,
      "lng": -74.6099,
      "winner_driver": "Denny Hulme"
    },
    {
      "name_race": "United States Grand Prix",
      "location": "New York State",
      "country": "USA",
      "lat": 42.3369,
      "lng": -76.9272,
      "winner_driver": "Jackie Stewart"
    },
    {
      "name_race": "Mexican Grand Prix",
      "location": "Mexico City",
      "country": "Mexico",
      "lat": 19.4042,
      "lng": -99.0907,
      "winner_driver": "Graham Hill"
    }
  ],
  "1969": [
    {
      "name_race": "South African Grand Prix",
      "location": "Midrand",
      "country": "South Africa",
      "lat": -25.9894,
      "lng": 28.0767,
      "winner_driver": "Jackie Stewart"
    },
    {
      "name_race": "Spanish Grand Prix",
      "location": "Barcelona",
      "country": "Spain",
      "lat": 41.3664,
      "lng": 2.15167,
      "winner_driver": "Jackie Stewart"
    },
    {
      "name_race": "Monaco Grand Prix",
      "location": "Monte-Carlo",
      "country": "Monaco",
      "lat": 43.7347,
      "lng": 7.42056,
      "winner_driver": "Graham Hill"
    },
    {
      "name_race": "Dutch Grand Prix",
      "location": "Zandvoort",
      "country": "Netherlands",
      "lat": 52.3888,
      "lng": 4.54092,
      "winner_driver": "Jackie Stewart"
    },
    {
      "name_race": "French Grand Prix",
      "location": "Clermont-Ferrand",
      "country": "France",
      "lat": 45.7472,
      "lng": 3.03889,
      "winner_driver": "Jackie Stewart"
    },
    {
      "name_race": "British Grand Prix",
      "location": "Silverstone",
      "country": "UK",
      "lat": 52.0786,
      "lng": -1.01694,
      "winner_driver": "Jackie Stewart"
    },
    {
      "name_race": "German Grand Prix",
      "location": "Nürburg",
      "country": "Germany",
      "lat": 50.3356,
      "lng": 6.9475,
      "winner_driver": "Jacky Ickx"
    },
    {
      "name_race": "Italian Grand Prix",
      "location": "Monza",
      "country": "Italy",
      "lat": 45.6156,
      "lng": 9.28111,
      "winner_driver": "Jackie Stewart"
    },
    {
      "name_race": "Canadian Grand Prix",
      "location": "Ontario",
      "country": "Canada",
      "lat": 44.0481,
      "lng": -78.6756,
      "winner_driver": "Jacky Ickx"
    },
    {
      "name_race": "United States Grand Prix",
      "location": "New York State",
      "country": "USA",
      "lat": 42.3369,
      "lng": -76.9272,
      "winner_driver": "Jochen Rindt"
    },
    {
      "name_race": "Mexican Grand Prix",
      "location": "Mexico City",
      "country": "Mexico",
      "lat": 19.4042,
      "lng": -99.0907,
      "winner_driver": "Denny Hulme"
    }
  ],
  "1970": [
    {
      "name_race": "South African Grand Prix",
      "location": "Midrand",
      "country": "South Africa",
      "lat": -25.9894,
      "lng": 28.0767,
      "winner_driver": "Jack Brabham"
    },
    {
      "name_race": "Spanish Grand Prix",
      "location": "Madrid",
      "country": "Spain",
      "lat": 40.6171,
      "lng": -3.58558,
      "winner_driver": "Jackie Stewart"
    },
    {
      "name_race": "Monaco Grand Prix",
      "location": "Monte-Carlo",
      "country": "Monaco",
      "lat": 43.7347,
      "lng": 7.42056,
      "winner_driver": "Jochen Rindt"
    },
    {
      "name_race": "Belgian Grand Prix",
      "location": "Spa",
      "country": "Belgium",
      "lat": 50.4372,
      "lng": 5.97139,
      "winner_driver": "Pedro Rodríguez"
    },
    {
      "name_race": "Dutch Grand Prix",
      "location": "Zandvoort",
      "country": "Netherlands",
      "lat": 52.3888,
      "lng": 4.54092,
      "winner_driver": "Jochen Rindt"
    },
    {
      "name_race": "French Grand Prix",
      "location": "Clermont-Ferrand",
      "country": "France",
      "lat": 45.7472,
      "lng": 3.03889,
      "winner_driver": "Jochen Rindt"
    },
    {
      "name_race": "British Grand Prix",
      "location": "Kent",
      "country": "UK",
      "lat": 51.3569,
      "lng": 0.263056,
      "winner_driver": "Jochen Rindt"
    },
    {
      "name_race": "German Grand Prix",
      "location": "Hockenheim",
      "country": "Germany",
      "lat": 49.3278,
      "lng": 8.56583,
      "winner_driver": "Jochen Rindt"
    },
    {
      "name_race": "Austrian Grand Prix",
      "location": "Spielberg",
      "country": "Austria",
      "lat": 47.2197,
      "lng": 14.7647,
      "winner_driver": "Jacky Ickx"
    },
    {
      "name_race": "Italian Grand Prix",
      "location": "Monza",
      "country": "Italy",
      "lat": 45.6156,
      "lng": 9.28111,
      "winner_driver": "Clay Regazzoni"
    },
    {
      "name_race": "Canadian Grand Prix",
      "location": "Quebec",
      "country": "Canada",
      "lat": 46.1877,
      "lng": -74.6099,
      "winner_driver": "Jacky Ickx"
    },
    {
      "name_race": "United States Grand Prix",
      "location": "New York State",
      "country": "USA",
      "lat": 42.3369,
      "lng": -76.9272,
      "winner_driver": "Emerson Fittipaldi"
    },
    {
      "name_race": "Mexican Grand Prix",
      "location": "Mexico City",
      "country": "Mexico",
      "lat": 19.4042,
      "lng": -99.0907,
      "winner_driver": "Jacky Ickx"
    }
  ],
  "1971": [
    {
      "name_race": "South African Grand Prix",
      "location": "Midrand",
      "country": "South Africa",
      "lat": -25.9894,
      "lng": 28.0767,
      "winner_driver": "Mario Andretti"
    },
    {
      "name_race": "Spanish Grand Prix",
      "location": "Barcelona",
      "country": "Spain",
      "lat": 41.3664,
      "lng": 2.15167,
      "winner_driver": "Jackie Stewart"
    },
    {
      "name_race": "Monaco Grand Prix",
      "location": "Monte-Carlo",
      "country": "Monaco",
      "lat": 43.7347,
      "lng": 7.42056,
      "winner_driver": "Jackie Stewart"
    },
    {
      "name_race": "Dutch Grand Prix",
      "location": "Zandvoort",
      "country": "Netherlands",
      "lat": 52.3888,
      "lng": 4.54092,
      "winner_driver": "Jacky Ickx"
    },
    {
      "name_race": "French Grand Prix",
      "location": "Le Castellet",
      "country": "France",
      "lat": 43.2506,
      "lng": 5.79167,
      "winner_driver": "Jackie Stewart"
    },
    {
      "name_race": "British Grand Prix",
      "location": "Silverstone",
      "country": "UK",
      "lat": 52.0786,
      "lng": -1.01694,
      "winner_driver": "Jackie Stewart"
    },
    {
      "name_race": "German Grand Prix",
      "location": "Nürburg",
      "country": "Germany",
      "lat": 50.3356,
      "lng": 6.9475,
      "winner_driver": "Jackie Stewart"
    },
    {
      "name_race": "Austrian Grand Prix",
      "location": "Spielberg",
      "country": "Austria",
      "lat": 47.2197,
      "lng": 14.7647,
      "winner_driver": "Jo Siffert"
    },
    {
      "name_race": "Italian Grand Prix",
      "location": "Monza",
      "country": "Italy",
      "lat": 45.6156,
      "lng": 9.28111,
      "winner_driver": "Peter Gethin"
    },
    {
      "name_race": "Canadian Grand Prix",
      "location": "Ontario",
      "country": "Canada",
      "lat": 44.0481,
      "lng": -78.6756,
      "winner_driver": "Jackie Stewart"
    },
    {
      "name_race": "United States Grand Prix",
      "location": "New York State",
      "country": "USA",
      "lat": 42.3369,
      "lng": -76.9272,
      "winner_driver": "François Cevert"
    }
  ],
  "1972": [
    {
      "name_race": "Argentine Grand Prix",
      "location": "Buenos Aires",
      "country": "Argentina",
      "lat": -34.6943,
      "lng": -58.4593,
      "winner_driver": "Jackie Stewart"
    },
    {
      "name_race": "South African Grand Prix",
      "location": "Midrand",
      "country": "South Africa",
      "lat": -25.9894,
      "lng": 28.0767,
      "winner_driver": "Denny Hulme"
    },
    {
      "name_race": "Spanish Grand Prix",
      "location": "Madrid",
      "country": "Spain",
      "lat": 40.6171,
      "lng": -3.58558,
      "winner_driver": "Emerson Fittipaldi"
    },
    {
      "name_race": "Monaco Grand Prix",
      "location": "Monte-Carlo",
      "country": "Monaco",
      "lat": 43.7347,
      "lng": 7.42056,
      "winner_driver": "Jean-Pierre Beltoise"
    },
    {
      "name_race": "Belgian Grand Prix",
      "location": "Brussels",
      "country": "Belgium",
      "lat": 50.6211,
      "lng": 4.32694,
      "winner_driver": "Emerson Fittipaldi"
    },
    {
      "name_race": "French Grand Prix",
      "location": "Clermont-Ferrand",
      "country": "France",
      "lat": 45.7472,
      "lng": 3.03889,
      "winner_driver": "Jackie Stewart"
    },
    {
      "name_race": "British Grand Prix",
      "location": "Kent",
      "country": "UK",
      "lat": 51.3569,
      "lng": 0.263056,
      "winner_driver": "Emerson Fittipaldi"
    },
    {
      "name_race": "German Grand Prix",
      "location": "Nürburg",
      "country": "Germany",
      "lat": 50.3356,
      "lng": 6.9475,
      "winner_driver": "Jacky Ickx"
    },
    {
      "name_race": "Austrian Grand Prix",
      "location": "Spielberg",
      "country": "Austria",
      "lat": 47.2197,
      "lng": 14.7647,
      "winner_driver": "Emerson Fittipaldi"
    },
    {
      "name_race": "Italian Grand Prix",
      "location": "Monza",
      "country": "Italy",
      "lat": 45.6156,
      "lng": 9.28111,
      "winner_driver": "Emerson Fittipaldi"
    },
    {
      "name_race": "Canadian Grand Prix",
      "location": "Ontario",
      "country": "Canada",
      "lat": 44.0481,
      "lng": -78.6756,
      "winner_driver": "Jackie Stewart"
    },
    {
      "name_race": "United States Grand Prix",
      "location": "New York State",
      "country": "USA",
      "lat": 42.3369,
      "lng": -76.9272,
      "winner_driver": "Jackie Stewart"
    }
  ],
  "1973": [
    {
      "name_race": "Argentine Grand Prix",
      "location": "Buenos Aires",
      "country": "Argentina",
      "lat": -34.6943,
      "lng": -58.4593,
      "winner_driver": "Emerson Fittipaldi"
    },
    {
      "name_race": "Brazilian Grand Prix",
      "location": "São Paulo",
      "country": "Brazil",
      "lat": -23.7036,
      "lng": -46.6997,
      "winner_driver": "Emerson Fittipaldi"
    },
    {
      "name_race": "South African Grand Prix",
      "location": "Midrand",
      "country": "South Africa",
      "lat": -25.9894,
      "lng": 28.0767,
      "winner_driver": "Jackie Stewart"
    },
    {
      "name_race": "Spanish Grand Prix",
      "location": "Barcelona",
      "country": "Spain",
      "lat": 41.3664,
      "lng": 2.15167,
      "winner_driver": "Emerson Fittipaldi"
    },
    {
      "name_race": "Belgian Grand Prix",
      "location": "Heusden-Zolder",
      "country": "Belgium",
      "lat": 50.9894,
      "lng": 5.25694,
      "winner_driver": "Jackie Stewart"
    },
    {
      "name_race": "Monaco Grand Prix",
      "location": "Monte-Carlo",
      "country": "Monaco",
      "lat": 43.7347,
      "lng": 7.42056,
      "winner_driver": "Jackie Stewart"
    },
    {
      "name_race": "Swedish Grand Prix",
      "location": "Anderstorp",
      "country": "Sweden",
      "lat": 57.2653,
      "lng": 13.6042,
      "winner_driver": "Denny Hulme"
    },
    {
      "name_race": "French Grand Prix",
      "location": "Le Castellet",
      "country": "France",
      "lat": 43.2506,
      "lng": 5.79167,
      "winner_driver": "Ronnie Peterson"
    },
    {
      "name_race": "British Grand Prix",
      "location": "Silverstone",
      "country": "UK",
      "lat": 52.0786,
      "lng": -1.01694,
      "winner_driver": "Peter Revson"
    },
    {
      "name_race": "Dutch Grand Prix",
      "location": "Zandvoort",
      "country": "Netherlands",
      "lat": 52.3888,
      "lng": 4.54092,
      "winner_driver": "Jackie Stewart"
    },
    {
      "name_race": "German Grand Prix",
      "location": "Nürburg",
      "country": "Germany",
      "lat": 50.3356,
      "lng": 6.9475,
      "winner_driver": "Jackie Stewart"
    },
    {
      "name_race": "Austrian Grand Prix",
      "location": "Spielberg",
      "country": "Austria",
      "lat": 47.2197,
      "lng": 14.7647,
      "winner_driver": "Ronnie Peterson"
    },
    {
      "name_race": "Italian Grand Prix",
      "location": "Monza",
      "country": "Italy",
      "lat": 45.6156,
      "lng": 9.28111,
      "winner_driver": "Ronnie Peterson"
    },
    {
      "name_race": "Canadian Grand Prix",
      "location": "Ontario",
      "country": "Canada",
      "lat": 44.0481,
      "lng": -78.6756,
      "winner_driver": "Peter Revson"
    },
    {
      "name_race": "United States Grand Prix",
      "location": "New York State",
      "country": "USA",
      "lat": 42.3369,
      "lng": -76.9272,
      "winner_driver": "Ronnie Peterson"
    }
  ],
  "1974": [
    {
      "name_race": "Argentine Grand Prix",
      "location": "Buenos Aires",
      "country": "Argentina",
      "lat": -34.6943,
      "lng": -58.4593,
      "winner_driver": "Denny Hulme"
    },
    {
      "name_race": "Brazilian Grand Prix",
      "location": "São Paulo",
      "country": "Brazil",
      "lat": -23.7036,
      "lng": -46.6997,
      "winner_driver": "Emerson Fittipaldi"
    },
    {
      "name_race": "South African Grand Prix",
      "location": "Midrand",
      "country": "South Africa",
      "lat": -25.9894,
      "lng": 28.0767,
      "winner_driver": "Carlos Reutemann"
    },
    {
      "name_race": "Spanish Grand Prix",
      "location": "Madrid",
      "country": "Spain",
      "lat": 40.6171,
      "lng": -3.58558,
      "winner_driver": "Niki Lauda"
    },
    {
      "name_race": "Belgian Grand Prix",
      "location": "Brussels",
      "country": "Belgium",
      "lat": 50.6211,
      "lng": 4.32694,
      "winner_driver": "Emerson Fittipaldi"
    },
    {
      "name_race": "Monaco Grand Prix",
      "location": "Monte-Carlo",
      "country": "Monaco",
      "lat": 43.7347,
      "lng": 7.42056,
      "winner_driver": "Ronnie Peterson"
    },
    {
      "name_race": "Swedish Grand Prix",
      "location": "Anderstorp",
      "country": "Sweden",
      "lat": 57.2653,
      "lng": 13.6042,
      "winner_driver": "Jody Scheckter"
    },
    {
      "name_race": "Dutch Grand Prix",
      "location": "Zandvoort",
      "country": "Netherlands",
      "lat": 52.3888,
      "lng": 4.54092,
      "winner_driver": "Niki Lauda"
    },
    {
      "name_race": "French Grand Prix",
      "location": "Dijon",
      "country": "France",
      "lat": 47.3625,
      "lng": 4.89913,
      "winner_driver": "Ronnie Peterson"
    },
    {
      "name_race": "British Grand Prix",
      "location": "Kent",
      "country": "UK",
      "lat": 51.3569,
      "lng": 0.263056,
      "winner_driver": "Jody Scheckter"
    },
    {
      "name_race": "German Grand Prix",
      "location": "Nürburg",
      "country": "Germany",
      "lat": 50.3356,
      "lng": 6.9475,
      "winner_driver": "Clay Regazzoni"
    },
    {
      "name_race": "Austrian Grand Prix",
      "location": "Spielberg",
      "country": "Austria",
      "lat": 47.2197,
      "lng": 14.7647,
      "winner_driver": "Carlos Reutemann"
    },
    {
      "name_race": "Italian Grand Prix",
      "location": "Monza",
      "country": "Italy",
      "lat": 45.6156,
      "lng": 9.28111,
      "winner_driver": "Ronnie Peterson"
    },
    {
      "name_race": "Canadian Grand Prix",
      "location": "Ontario",
      "country": "Canada",
      "lat": 44.0481,
      "lng": -78.6756,
      "winner_driver": "Emerson Fittipaldi"
    },
    {
      "name_race": "United States Grand Prix",
      "location": "New York State",
      "country": "USA",
      "lat": 42.3369,
      "lng": -76.9272,
      "winner_driver": "Carlos Reutemann"
    }
  ],
  "1975": [
    {
      "name_race": "Argentine Grand Prix",
      "location": "Buenos Aires",
      "country": "Argentina",
      "lat": -34.6943,
      "lng": -58.4593,
      "winner_driver": "Emerson Fittipaldi"
    },
    {
      "name_race": "Brazilian Grand Prix",
      "location": "São Paulo",
      "country": "Brazil",
      "lat": -23.7036,
      "lng": -46.6997,
      "winner_driver": "Carlos Pace"
    },
    {
      "name_race": "South African Grand Prix",
      "location": "Midrand",
      "country": "South Africa",
      "lat": -25.9894,
      "lng": 28.0767,
      "winner_driver": "Jody Scheckter"
    },
    {
      "name_race": "Spanish Grand Prix",
      "location": "Barcelona",
      "country": "Spain",
      "lat": 41.3664,
      "lng": 2.15167,
      "winner_driver": "Jochen Mass"
    },
    {
      "name_race": "Monaco Grand Prix",
      "location": "Monte-Carlo",
      "country": "Monaco",
      "lat": 43.7347,
      "lng": 7.42056,
      "winner_driver": "Niki Lauda"
    },
    {
      "name_race": "Belgian Grand Prix",
      "location": "Heusden-Zolder",
      "country": "Belgium",
      "lat": 50.9894,
      "lng": 5.25694,
      "winner_driver": "Niki Lauda"
    },
    {
      "name_race": "Swedish Grand Prix",
      "location": "Anderstorp",
      "country": "Sweden",
      "lat": 57.2653,
      "lng": 13.6042,
      "winner_driver": "Niki Lauda"
    },
    {
      "name_race": "Dutch Grand Prix",
      "location": "Zandvoort",
      "country": "Netherlands",
      "lat": 52.3888,
      "lng": 4.54092,
      "winner_driver": "James Hunt"
    },
    {
      "name_race": "French Grand Prix",
      "location": "Le Castellet",
      "country": "France",
      "lat": 43.2506,
      "lng": 5.79167,
      "winner_driver": "Niki Lauda"
    },
    {
      "name_race": "British Grand Prix",
      "location": "Silverstone",
      "country": "UK",
      "lat": 52.0786,
      "lng": -1.01694,
      "winner_driver": "Emerson Fittipaldi"
    },
    {
      "name_race": "German Grand Prix",
      "location": "Nürburg",
      "country": "Germany",
      "lat": 50.3356,
      "lng": 6.9475,
      "winner_driver": "Carlos Reutemann"
    },
    {
      "name_race": "Austrian Grand Prix",
      "location": "Spielberg",
      "country": "Austria",
      "lat": 47.2197,
      "lng": 14.7647,
      "winner_driver": "Vittorio Brambilla"
    },
    {
      "name_race": "Italian Grand Prix",
      "location": "Monza",
      "country": "Italy",
      "lat": 45.6156,
      "lng": 9.28111,
      "winner_driver": "Clay Regazzoni"
    },
    {
      "name_race": "United States Grand Prix",
      "location": "New York State",
      "country": "USA",
      "lat": 42.3369,
      "lng": -76.9272,
      "winner_driver": "Niki Lauda"
    }
  ],
  "1976": [
    {
      "name_race": "Brazilian Grand Prix",
      "location": "São Paulo",
      "country": "Brazil",
      "lat": -23.7036,
      "lng": -46.6997,
      "winner_driver": "Niki Lauda"
    },
    {
      "name_race": "South African Grand Prix",
      "location": "Midrand",
      "country": "South Africa",
      "lat": -25.9894,
      "lng": 28.0767,
      "winner_driver": "Niki Lauda"
    },
    {
      "name_race": "United States Grand Prix West",
      "location": "California",
      "country": "USA",
      "lat": 33.7651,
      "lng": -118.189,
      "winner_driver": "Clay Regazzoni"
    },
    {
      "name_race": "Spanish Grand Prix",
      "location": "Madrid",
      "country": "Spain",
      "lat": 40.6171,
      "lng": -3.58558,
      "winner_driver": "James Hunt"
    },
    {
      "name_race": "Belgian Grand Prix",
      "location": "Heusden-Zolder",
      "country": "Belgium",
      "lat": 50.9894,
      "lng": 5.25694,
      "winner_driver": "Niki Lauda"
    },
    {
      "name_race": "Monaco Grand Prix",
      "location": "Monte-Carlo",
      "country": "Monaco",
      "lat": 43.7347,
      "lng": 7.42056,
      "winner_driver": "Niki Lauda"
    },
    {
      "name_race": "Swedish Grand Prix",
      "location": "Anderstorp",
      "country": "Sweden",
      "lat": 57.2653,
      "lng": 13.6042,
      "winner_driver": "Jody Scheckter"
    },
    {
      "name_race": "French Grand Prix",
      "location": "Le Castellet",
      "country": "France",
      "lat": 43.2506,
      "lng": 5.79167,
      "winner_driver": "James Hunt"
    },
    {
      "name_race": "British Grand Prix",
      "location": "Kent",
      "country": "UK",
      "lat": 51.3569,
      "lng": 0.263056,
      "winner_driver": "Niki Lauda"
    },
    {
      "name_race": "German Grand Prix",
      "location": "Nürburg",
      "country": "Germany",
      "lat": 50.3356,
      "lng": 6.9475,
      "winner_driver": "James Hunt"
    },
    {
      "name_race": "Austrian Grand Prix",
      "location": "Spielberg",
      "country": "Austria",
      "lat": 47.2197,
      "lng": 14.7647,
      "winner_driver": "John Watson"
    },
    {
      "name_race": "Dutch Grand Prix",
      "location": "Zandvoort",
      "country": "Netherlands",
      "lat": 52.3888,
      "lng": 4.54092,
      "winner_driver": "James Hunt"
    },
    {
      "name_race": "Italian Grand Prix",
      "location": "Monza",
      "country": "Italy",
      "lat": 45.6156,
      "lng": 9.28111,
      "winner_driver": "Ronnie Peterson"
    },
    {
      "name_race": "Canadian Grand Prix",
      "location": "Ontario",
      "country": "Canada",
      "lat": 44.0481,
      "lng": -78.6756,
      "winner_driver": "James Hunt"
    },
    {
      "name_race": "United States Grand Prix",
      "location": "New York State",
      "country": "USA",
      "lat": 42.3369,
      "lng": -76.9272,
      "winner_driver": "James Hunt"
    },
    {
      "name_race": "Japanese Grand Prix",
      "location": "Oyama",
      "country": "Japan",
      "lat": 35.3717,
      "lng": 138.927,
      "winner_driver": "Mario Andretti"
    }
  ],
  "1977": [
    {
      "name_race": "Argentine Grand Prix",
      "location": "Buenos Aires",
      "country": "Argentina",
      "lat": -34.6943,
      "lng": -58.4593,
      "winner_driver": "Jody Scheckter"
    },
    {
      "name_race": "Brazilian Grand Prix",
      "location": "São Paulo",
      "country": "Brazil",
      "lat": -23.7036,
      "lng": -46.6997,
      "winner_driver": "Carlos Reutemann"
    },
    {
      "name_race": "South African Grand Prix",
      "location": "Midrand",
      "country": "South Africa",
      "lat": -25.9894,
      "lng": 28.0767,
      "winner_driver": "Niki Lauda"
    },
    {
      "name_race": "United States Grand Prix West",
      "location": "California",
      "country": "USA",
      "lat": 33.7651,
      "lng": -118.189,
      "winner_driver": "Mario Andretti"
    },
    {
      "name_race": "Spanish Grand Prix",
      "location": "Madrid",
      "country": "Spain",
      "lat": 40.6171,
      "lng": -3.58558,
      "winner_driver": "Mario Andretti"
    },
    {
      "name_race": "Monaco Grand Prix",
      "location": "Monte-Carlo",
      "country": "Monaco",
      "lat": 43.7347,
      "lng": 7.42056,
      "winner_driver": "Jody Scheckter"
    },
    {
      "name_race": "Belgian Grand Prix",
      "location": "Heusden-Zolder",
      "country": "Belgium",
      "lat": 50.9894,
      "lng": 5.25694,
      "winner_driver": "Gunnar Nilsson"
    },
    {
      "name_race": "Swedish Grand Prix",
      "location": "Anderstorp",
      "country": "Sweden",
      "lat": 57.2653,
      "lng": 13.6042,
      "winner_driver": "Jacques Laffite"
    },
    {
      "name_race": "French Grand Prix",
      "location": "Dijon",
      "country": "France",
      "lat": 47.3625,
      "lng": 4.89913,
      "winner_driver": "Mario Andretti"
    },
    {
      "name_race": "British Grand Prix",
      "location": "Silverstone",
      "country": "UK",
      "lat": 52.0786,
      "lng": -1.01694,
      "winner_driver": "James Hunt"
    },
    {
      "name_race": "German Grand Prix",
      "location": "Hockenheim",
      "country": "Germany",
      "lat": 49.3278,
      "lng": 8.56583,
      "winner_driver": "Niki Lauda"
    },
    {
      "name_race": "Austrian Grand Prix",
      "location": "Spielberg",
      "country": "Austria",
      "lat": 47.2197,
      "lng": 14.7647,
      "winner_driver": "Alan Jones"
    },
    {
      "name_race": "Dutch Grand Prix",
      "location": "Zandvoort",
      "country": "Netherlands",
      "lat": 52.3888,
      "lng": 4.54092,
      "winner_driver": "Niki Lauda"
    },
    {
      "name_race": "Italian Grand Prix",
      "location": "Monza",
      "country": "Italy",
      "lat": 45.6156,
      "lng": 9.28111,
      "winner_driver": "Mario Andretti"
    },
    {
      "name_race": "United States Grand Prix",
      "location": "New York State",
      "country": "USA",
      "lat": 42.3369,
      "lng": -76.9272,
      "winner_driver": "James Hunt"
    },
    {
      "name_race": "Canadian Grand Prix",
      "location": "Ontario",
      "country": "Canada",
      "lat": 44.0481,
      "lng": -78.6756,
      "winner_driver": "Jody Scheckter"
    },
    {
      "name_race": "Japanese Grand Prix",
      "location": "Oyama",
      "country": "Japan",
      "lat": 35.3717,
      "lng": 138.927,
      "winner_driver": "James Hunt"
    }
  ],
  "1978": [
    {
      "name_race": "Argentine Grand Prix",
      "location": "Buenos Aires",
      "country": "Argentina",
      "lat": -34.6943,
      "lng": -58.4593,
      "winner_driver": "Mario Andretti"
    },
    {
      "name_race": "Brazilian Grand Prix",
      "location": "Rio de Janeiro",
      "country": "Brazil",
      "lat": -22.9756,
      "lng": -43.395,
      "winner_driver": "Carlos Reutemann"
    },
    {
      "name_race": "South African Grand Prix",
      "location": "Midrand",
      "country": "South Africa",
      "lat": -25.9894,
      "lng": 28.0767,
      "winner_driver": "Ronnie Peterson"
    },
    {
      "name_race": "United States Grand Prix West",
      "location": "California",
      "country": "USA",
      "lat": 33.7651,
      "lng": -118.189,
      "winner_driver": "Carlos Reutemann"
    },
    {
      "name_race": "Monaco Grand Prix",
      "location": "Monte-Carlo",
      "country": "Monaco",
      "lat": 43.7347,
      "lng": 7.42056,
      "winner_driver": "Patrick Depailler"
    },
    {
      "name_race": "Belgian Grand Prix",
      "location": "Heusden-Zolder",
      "country": "Belgium",
      "lat": 50.9894,
      "lng": 5.25694,
      "winner_driver": "Mario Andretti"
    },
    {
      "name_race": "Spanish Grand Prix",
      "location": "Madrid",
      "country": "Spain",
      "lat": 40.6171,
      "lng": -3.58558,
      "winner_driver": "Mario Andretti"
    },
    {
      "name_race": "Swedish Grand Prix",
      "location": "Anderstorp",
      "country": "Sweden",
      "lat": 57.2653,
      "lng": 13.6042,
      "winner_driver": "Niki Lauda"
    },
    {
      "name_race": "French Grand Prix",
      "location": "Le Castellet",
      "country": "France",
      "lat": 43.2506,
      "lng": 5.79167,
      "winner_driver": "Mario Andretti"
    },
    {
      "name_race": "British Grand Prix",
      "location": "Kent",
      "country": "UK",
      "lat": 51.3569,
      "lng": 0.263056,
      "winner_driver": "Carlos Reutemann"
    },
    {
      "name_race": "German Grand Prix",
      "location": "Hockenheim",
      "country": "Germany",
      "lat": 49.3278,
      "lng": 8.56583,
      "winner_driver": "Mario Andretti"
    },
    {
      "name_race": "Austrian Grand Prix",
      "location": "Spielberg",
      "country": "Austria",
      "lat": 47.2197,
      "lng": 14.7647,
      "winner_driver": "Ronnie Peterson"
    },
    {
      "name_race": "Dutch Grand Prix",
      "location": "Zandvoort",
      "country": "Netherlands",
      "lat": 52.3888,
      "lng": 4.54092,
      "winner_driver": "Mario Andretti"
    },
    {
      "name_race": "Italian Grand Prix",
      "location": "Monza",
      "country": "Italy",
      "lat": 45.6156,
      "lng": 9.28111,
      "winner_driver": "Niki Lauda"
    },
    {
      "name_race": "United States Grand Prix",
      "location": "New York State",
      "country": "USA",
      "lat": 42.3369,
      "lng": -76.9272,
      "winner_driver": "Carlos Reutemann"
    },
    {
      "name_race": "Canadian Grand Prix",
      "location": "Montreal",
      "country": "Canada",
      "lat": 45.5,
      "lng": -73.5228,
      "winner_driver": "Gilles Villeneuve"
    }
  ],
  "1979": [
    {
      "name_race": "Argentine Grand Prix",
      "location": "Buenos Aires",
      "country": "Argentina",
      "lat": -34.6943,
      "lng": -58.4593,
      "winner_driver": "Jacques Laffite"
    },
    {
      "name_race": "Brazilian Grand Prix",
      "location": "São Paulo",
      "country": "Brazil",
      "lat": -23.7036,
      "lng": -46.6997,
      "winner_driver": "Jacques Laffite"
    },
    {
      "name_race": "South African Grand Prix",
      "location": "Midrand",
      "country": "South Africa",
      "lat": -25.9894,
      "lng": 28.0767,
      "winner_driver": "Gilles Villeneuve"
    },
    {
      "name_race": "United States Grand Prix West",
      "location": "California",
      "country": "USA",
      "lat": 33.7651,
      "lng": -118.189,
      "winner_driver": "Gilles Villeneuve"
    },
    {
      "name_race": "Spanish Grand Prix",
      "location": "Madrid",
      "country": "Spain",
      "lat": 40.6171,
      "lng": -3.58558,
      "winner_driver": "Patrick Depailler"
    },
    {
      "name_race": "Belgian Grand Prix",
      "location": "Heusden-Zolder",
      "country": "Belgium",
      "lat": 50.9894,
      "lng": 5.25694,
      "winner_driver": "Jody Scheckter"
    },
    {
      "name_race": "Monaco Grand Prix",
      "location": "Monte-Carlo",
      "country": "Monaco",
      "lat": 43.7347,
      "lng": 7.42056,
      "winner_driver": "Jody Scheckter"
    },
    {
      "name_race": "French Grand Prix",
      "location": "Dijon",
      "country": "France",
      "lat": 47.3625,
      "lng": 4.89913,
      "winner_driver": "Jean-Pierre Jabouille"
    },
    {
      "name_race": "British Grand Prix",
      "location": "Silverstone",
      "country": "UK",
      "lat": 52.0786,
      "lng": -1.01694,
      "winner_driver": "Clay Regazzoni"
    },
    {
      "name_race": "German Grand Prix",
      "location": "Hockenheim",
      "country": "Germany",
      "lat": 49.3278,
      "lng": 8.56583,
      "winner_driver": "Alan Jones"
    },
    {
      "name_race": "Austrian Grand Prix",
      "location": "Spielberg",
      "country": "Austria",
      "lat": 47.2197,
      "lng": 14.7647,
      "winner_driver": "Alan Jones"
    },
    {
      "name_race": "Dutch Grand Prix",
      "location": "Zandvoort",
      "country": "Netherlands",
      "lat": 52.3888,
      "lng": 4.54092,
      "winner_driver": "Alan Jones"
    },
    {
      "name_race": "Italian Grand Prix",
      "location": "Monza",
      "country": "Italy",
      "lat": 45.6156,
      "lng": 9.28111,
      "winner_driver": "Jody Scheckter"
    },
    {
      "name_race": "Canadian Grand Prix",
      "location": "Montreal",
      "country": "Canada",
      "lat": 45.5,
      "lng": -73.5228,
      "winner_driver": "Alan Jones"
    },
    {
      "name_race": "United States Grand Prix",
      "location": "New York State",
      "country": "USA",
      "lat": 42.3369,
      "lng": -76.9272,
      "winner_driver": "Gilles Villeneuve"
    }
  ],
  "1980": [
    {
      "name_race": "Argentine Grand Prix",
      "location": "Buenos Aires",
      "country": "Argentina",
      "lat": -34.6943,
      "lng": -58.4593,
      "winner_driver": "Alan Jones"
    },
    {
      "name_race": "Brazilian Grand Prix",
      "location": "São Paulo",
      "country": "Brazil",
      "lat": -23.7036,
      "lng": -46.6997,
      "winner_driver": "René Arnoux"
    },
    {
      "name_race": "South African Grand Prix",
      "location": "Midrand",
      "country": "South Africa",
      "lat": -25.9894,
      "lng": 28.0767,
      "winner_driver": "René Arnoux"
    },
    {
      "name_race": "United States Grand Prix West",
      "location": "California",
      "country": "USA",
      "lat": 33.7651,
      "lng": -118.189,
      "winner_driver": "Nelson Piquet"
    },
    {
      "name_race": "Belgian Grand Prix",
      "location": "Heusden-Zolder",
      "country": "Belgium",
      "lat": 50.9894,
      "lng": 5.25694,
      "winner_driver": "Didier Pironi"
    },
    {
      "name_race": "Monaco Grand Prix",
      "location": "Monte-Carlo",
      "country": "Monaco",
      "lat": 43.7347,
      "lng": 7.42056,
      "winner_driver": "Carlos Reutemann"
    },
    {
      "name_race": "French Grand Prix",
      "location": "Le Castellet",
      "country": "France",
      "lat": 43.2506,
      "lng": 5.79167,
      "winner_driver": "Alan Jones"
    },
    {
      "name_race": "British Grand Prix",
      "location": "Kent",
      "country": "UK",
      "lat": 51.3569,
      "lng": 0.263056,
      "winner_driver": "Alan Jones"
    },
    {
      "name_race": "German Grand Prix",
      "location": "Hockenheim",
      "country": "Germany",
      "lat": 49.3278,
      "lng": 8.56583,
      "winner_driver": "Jacques Laffite"
    },
    {
      "name_race": "Austrian Grand Prix",
      "location": "Spielberg",
      "country": "Austria",
      "lat": 47.2197,
      "lng": 14.7647,
      "winner_driver": "Jean-Pierre Jabouille"
    },
    {
      "name_race": "Dutch Grand Prix",
      "location": "Zandvoort",
      "country": "Netherlands",
      "lat": 52.3888,
      "lng": 4.54092,
      "winner_driver": "Nelson Piquet"
    },
    {
      "name_race": "Italian Grand Prix",
      "location": "Imola",
      "country": "Italy",
      "lat": 44.3439,
      "lng": 11.7167,
      "winner_driver": "Nelson Piquet"
    },
    {
      "name_race": "Canadian Grand Prix",
      "location": "Montreal",
      "country": "Canada",
      "lat": 45.5,
      "lng": -73.5228,
      "winner_driver": "Alan Jones"
    },
    {
      "name_race": "United States Grand Prix",
      "location": "New York State",
      "country": "USA",
      "lat": 42.3369,
      "lng": -76.9272,
      "winner_driver": "Alan Jones"
    }
  ],
  "1981": [
    {
      "name_race": "United States Grand Prix West",
      "location": "California",
      "country": "USA",
      "lat": 33.7651,
      "lng": -118.189,
      "winner_driver": "Alan Jones"
    },
    {
      "name_race": "Brazilian Grand Prix",
      "location": "Rio de Janeiro",
      "country": "Brazil",
      "lat": -22.9756,
      "lng": -43.395,
      "winner_driver": "Carlos Reutemann"
    },
    {
      "name_race": "Argentine Grand Prix",
      "location": "Buenos Aires",
      "country": "Argentina",
      "lat": -34.6943,
      "lng": -58.4593,
      "winner_driver": "Nelson Piquet"
    },
    {
      "name_race": "San Marino Grand Prix",
      "location": "Imola",
      "country": "Italy",
      "lat": 44.3439,
      "lng": 11.7167,
      "winner_driver": "Nelson Piquet"
    },
    {
      "name_race": "Belgian Grand Prix",
      "location": "Heusden-Zolder",
      "country": "Belgium",
      "lat": 50.9894,
      "lng": 5.25694,
      "winner_driver": "Carlos Reutemann"
    },
    {
      "name_race": "Monaco Grand Prix",
      "location": "Monte-Carlo",
      "country": "Monaco",
      "lat": 43.7347,
      "lng": 7.42056,
      "winner_driver": "Gilles Villeneuve"
    },
    {
      "name_race": "Spanish Grand Prix",
      "location": "Madrid",
      "country": "Spain",
      "lat": 40.6171,
      "lng": -3.58558,
      "winner_driver": "Gilles Villeneuve"
    },
    {
      "name_race": "French Grand Prix",
      "location": "Dijon",
      "country": "France",
      "lat": 47.3625,
      "lng": 4.89913,
      "winner_driver": "Alain Prost"
    },
    {
      "name_race": "British Grand Prix",
      "location": "Silverstone",
      "country": "UK",
      "lat": 52.0786,
      "lng": -1.01694,
      "winner_driver": "John Watson"
    },
    {
      "name_race": "German Grand Prix",
      "location": "Hockenheim",
      "country": "Germany",
      "lat": 49.3278,
      "lng": 8.56583,
      "winner_driver": "Nelson Piquet"
    },
    {
      "name_race": "Austrian Grand Prix",
      "location": "Spielberg",
      "country": "Austria",
      "lat": 47.2197,
      "lng": 14.7647,
      "winner_driver": "Jacques Laffite"
    },
    {
      "name_race": "Dutch Grand Prix",
      "location": "Zandvoort",
      "country": "Netherlands",
      "lat": 52.3888,
      "lng": 4.54092,
      "winner_driver": "Alain Prost"
    },
    {
      "name_race": "Italian Grand Prix",
      "location": "Monza",
      "country": "Italy",
      "lat": 45.6156,
      "lng": 9.28111,
      "winner_driver": "Alain Prost"
    },
    {
      "name_race": "Canadian Grand Prix",
      "location": "Montreal",
      "country": "Canada",
      "lat": 45.5,
      "lng": -73.5228,
      "winner_driver": "Jacques Laffite"
    },
    {
      "name_race": "Caesars Palace Grand Prix",
      "location": "Nevada",
      "country": "USA",
      "lat": 36.1162,
      "lng": -115.174,
      "winner_driver": "Alan Jones"
    }
  ],
  "1982": [
    {
      "name_race": "South African Grand Prix",
      "location": "Midrand",
      "country": "South Africa",
      "lat": -25.9894,
      "lng": 28.0767,
      "winner_driver": "Alain Prost"
    },
    {
      "name_race": "Brazilian Grand Prix",
      "location": "Rio de Janeiro",
      "country": "Brazil",
      "lat": -22.9756,
      "lng": -43.395,
      "winner_driver": "Alain Prost"
    },
    {
      "name_race": "United States Grand Prix West",
      "location": "California",
      "country": "USA",
      "lat": 33.7651,
      "lng": -118.189,
      "winner_driver": "Niki Lauda"
    },
    {
      "name_race": "San Marino Grand Prix",
      "location": "Imola",
      "country": "Italy",
      "lat": 44.3439,
      "lng": 11.7167,
      "winner_driver": "Didier Pironi"
    },
    {
      "name_race": "Belgian Grand Prix",
      "location": "Heusden-Zolder",
      "country": "Belgium",
      "lat": 50.9894,
      "lng": 5.25694,
      "winner_driver": "John Watson"
    },
    {
      "name_race": "Monaco Grand Prix",
      "location": "Monte-Carlo",
      "country": "Monaco",
      "lat": 43.7347,
      "lng": 7.42056,
      "winner_driver": "Riccardo Patrese"
    },
    {
      "name_race": "Detroit Grand Prix",
      "location": "Detroit",
      "country": "USA",
      "lat": 42.3298,
      "lng": -83.0401,
      "winner_driver": "John Watson"
    },
    {
      "name_race": "Canadian Grand Prix",
      "location": "Montreal",
      "country": "Canada",
      "lat": 45.5,
      "lng": -73.5228,
      "winner_driver": "Nelson Piquet"
    },
    {
      "name_race": "Dutch Grand Prix",
      "location": "Zandvoort",
      "country": "Netherlands",
      "lat": 52.3888,
      "lng": 4.54092,
      "winner_driver": "Didier Pironi"
    },
    {
      "name_race": "British Grand Prix",
      "location": "Kent",
      "country": "UK",
      "lat": 51.3569,
      "lng": 0.263056,
      "winner_driver": "Niki Lauda"
    },
    {
      "name_race": "French Grand Prix",
      "location": "Le Castellet",
      "country": "France",
      "lat": 43.2506,
      "lng": 5.79167,
      "winner_driver": "René Arnoux"
    },
    {
      "name_race": "German Grand Prix",
      "location": "Hockenheim",
      "country": "Germany",
      "lat": 49.3278,
      "lng": 8.56583,
      "winner_driver": "Patrick Tambay"
    },
    {
      "name_race": "Austrian Grand Prix",
      "location": "Spielberg",
      "country": "Austria",
      "lat": 47.2197,
      "lng": 14.7647,
      "winner_driver": "Elio de Angelis"
    },
    {
      "name_race": "Swiss Grand Prix",
      "location": "Dijon",
      "country": "France",
      "lat": 47.3625,
      "lng": 4.89913,
      "winner_driver": "Keke Rosberg"
    },
    {
      "name_race": "Italian Grand Prix",
      "location": "Monza",
      "country": "Italy",
      "lat": 45.6156,
      "lng": 9.28111,
      "winner_driver": "René Arnoux"
    },
    {
      "name_race": "Caesars Palace Grand Prix",
      "location": "Nevada",
      "country": "USA",
      "lat": 36.1162,
      "lng": -115.174,
      "winner_driver": "Michele Alboreto"
    }
  ],
  "1983": [
    {
      "name_race": "Brazilian Grand Prix",
      "location": "Rio de Janeiro",
      "country": "Brazil",
      "lat": -22.9756,
      "lng": -43.395,
      "winner_driver": "Nelson Piquet"
    },
    {
      "name_race": "United States Grand Prix West",
      "location": "California",
      "country": "USA",
      "lat": 33.7651,
      "lng": -118.189,
      "winner_driver": "John Watson"
    },
    {
      "name_race": "French Grand Prix",
      "location": "Le Castellet",
      "country": "France",
      "lat": 43.2506,
      "lng": 5.79167,
      "winner_driver": "Alain Prost"
    },
    {
      "name_race": "San Marino Grand Prix",
      "location": "Imola",
      "country": "Italy",
      "lat": 44.3439,
      "lng": 11.7167,
      "winner_driver": "Patrick Tambay"
    },
    {
      "name_race": "Monaco Grand Prix",
      "location": "Monte-Carlo",
      "country": "Monaco",
      "lat": 43.7347,
      "lng": 7.42056,
      "winner_driver": "Keke Rosberg"
    },
    {
      "name_race": "Belgian Grand Prix",
      "location": "Spa",
      "country": "Belgium",
      "lat": 50.4372,
      "lng": 5.97139,
      "winner_driver": "Alain Prost"
    },
    {
      "name_race": "Detroit Grand Prix",
      "location": "Detroit",
      "country": "USA",
      "lat": 42.3298,
      "lng": -83.0401,
      "winner_driver": "Michele Alboreto"
    },
    {
      "name_race": "Canadian Grand Prix",
      "location": "Montreal",
      "country": "Canada",
      "lat": 45.5,
      "lng": -73.5228,
      "winner_driver": "René Arnoux"
    },
    {
      "name_race": "British Grand Prix",
      "location": "Silverstone",
      "country": "UK",
      "lat": 52.0786,
      "lng": -1.01694,
      "winner_driver": "Alain Prost"
    },
    {
      "name_race": "German Grand Prix",
      "location": "Hockenheim",
      "country": "Germany",
      "lat": 49.3278,
      "lng": 8.56583,
      "winner_driver": "René Arnoux"
    },
    {
      "name_race": "Austrian Grand Prix",
      "location": "Spielberg",
      "country": "Austria",
      "lat": 47.2197,
      "lng": 14.7647,
      "winner_driver": "Alain Prost"
    },
    {
      "name_race": "Dutch Grand Prix",
      "location": "Zandvoort",
      "country": "Netherlands",
      "lat": 52.3888,
      "lng": 4.54092,
      "winner_driver": "René Arnoux"
    },
    {
      "name_race": "Italian Grand Prix",
      "location": "Monza",
      "country": "Italy",
      "lat": 45.6156,
      "lng": 9.28111,
      "winner_driver": "Nelson Piquet"
    },
    {
      "name_race": "European Grand Prix",
      "location": "Kent",
      "country": "UK",
      "lat": 51.3569,
      "lng": 0.263056,
      "winner_driver": "Nelson Piquet"
    },
    {
      "name_race": "South African Grand Prix",
      "location": "Midrand",
      "country": "South Africa",
      "lat": -25.9894,
      "lng": 28.0767,
      "winner_driver": "Riccardo Patrese"
    }
  ],
  "1984": [
    {
      "name_race": "Brazilian Grand Prix",
      "location": "Rio de Janeiro",
      "country": "Brazil",
      "lat": -22.9756,
      "lng": -43.395,
      "winner_driver": "Alain Prost"
    },
    {
      "name_race": "South African Grand Prix",
      "location": "Midrand",
      "country": "South Africa",
      "lat": -25.9894,
      "lng": 28.0767,
      "winner_driver": "Niki Lauda"
    },
    {
      "name_race": "Belgian Grand Prix",
      "location": "Heusden-Zolder",
      "country": "Belgium",
      "lat": 50.9894,
      "lng": 5.25694,
      "winner_driver": "Michele Alboreto"
    },
    {
      "name_race": "San Marino Grand Prix",
      "location": "Imola",
      "country": "Italy",
      "lat": 44.3439,
      "lng": 11.7167,
      "winner_driver": "Alain Prost"
    },
    {
      "name_race": "French Grand Prix",
      "location": "Dijon",
      "country": "France",
      "lat": 47.3625,
      "lng": 4.89913,
      "winner_driver": "Niki Lauda"
    },
    {
      "name_race": "Monaco Grand Prix",
      "location": "Monte-Carlo",
      "country": "Monaco",
      "lat": 43.7347,
      "lng": 7.42056,
      "winner_driver": "Alain Prost"
    },
    {
      "name_race": "Canadian Grand Prix",
      "location": "Montreal",
      "country": "Canada",
      "lat": 45.5,
      "lng": -73.5228,
      "winner_driver": "Nelson Piquet"
    },
    {
      "name_race": "Detroit Grand Prix",
      "location": "Detroit",
      "country": "USA",
      "lat": 42.3298,
      "lng": -83.0401,
      "winner_driver": "Nelson Piquet"
    },
    {
      "name_race": "Dallas Grand Prix",
      "location": "Dallas",
      "country": "USA",
      "lat": 32.7774,
      "lng": -96.7587,
      "winner_driver": "Keke Rosberg"
    },
    {
      "name_race": "British Grand Prix",
      "location": "Kent",
      "country": "UK",
      "lat": 51.3569,
      "lng": 0.263056,
      "winner_driver": "Niki Lauda"
    },
    {
      "name_race": "German Grand Prix",
      "location": "Hockenheim",
      "country": "Germany",
      "lat": 49.3278,
      "lng": 8.56583,
      "winner_driver": "Alain Prost"
    },
    {
      "name_race": "Austrian Grand Prix",
      "location": "Spielberg",
      "country": "Austria",
      "lat": 47.2197,
      "lng": 14.7647,
      "winner_driver": "Niki Lauda"
    },
    {
      "name_race": "Dutch Grand Prix",
      "location": "Zandvoort",
      "country": "Netherlands",
      "lat": 52.3888,
      "lng": 4.54092,
      "winner_driver": "Alain Prost"
    },
    {
      "name_race": "Italian Grand Prix",
      "location": "Monza",
      "country": "Italy",
      "lat": 45.6156,
      "lng": 9.28111,
      "winner_driver": "Niki Lauda"
    },
    {
      "name_race": "European Grand Prix",
      "location": "Nürburg",
      "country": "Germany",
      "lat": 50.3356,
      "lng": 6.9475,
      "winner_driver": "Alain Prost"
    },
    {
      "name_race": "Portuguese Grand Prix",
      "location": "Estoril",
      "country": "Portugal",
      "lat": 38.7506,
      "lng": -9.39417,
      "winner_driver": "Alain Prost"
    }
  ],
  "1985": [
    {
      "name_race": "Brazilian Grand Prix",
      "location": "Rio de Janeiro",
      "country": "Brazil",
      "lat": -22.9756,
      "lng": -43.395,
      "winner_driver": "Alain Prost"
    },
    {
      "name_race": "Portuguese Grand Prix",
      "location": "Estoril",
      "country": "Portugal",
      "lat": 38.7506,
      "lng": -9.39417,
      "winner_driver": "Ayrton Senna"
    },
    {
      "name_race": "San Marino Grand Prix",
      "location": "Imola",
      "country": "Italy",
      "lat": 44.3439,
      "lng": 11.7167,
      "winner_driver": "Elio de Angelis"
    },
    {
      "name_race": "Monaco Grand Prix",
      "location": "Monte-Carlo",
      "country": "Monaco",
      "lat": 43.7347,
      "lng": 7.42056,
      "winner_driver": "Alain Prost"
    },
    {
      "name_race": "Canadian Grand Prix",
      "location": "Montreal",
      "country": "Canada",
      "lat": 45.5,
      "lng": -73.5228,
      "winner_driver": "Michele Alboreto"
    },
    {
      "name_race": "Detroit Grand Prix",
      "location": "Detroit",
      "country": "USA",
      "lat": 42.3298,
      "lng": -83.0401,
      "winner_driver": "Keke Rosberg"
    },
    {
      "name_race": "French Grand Prix",
      "location": "Le Castellet",
      "country": "France",
      "lat": 43.2506,
      "lng": 5.79167,
      "winner_driver": "Nelson Piquet"
    },
    {
      "name_race": "British Grand Prix",
      "location": "Silverstone",
      "country": "UK",
      "lat": 52.0786,
      "lng": -1.01694,
      "winner_driver": "Alain Prost"
    },
    {
      "name_race": "German Grand Prix",
      "location": "Nürburg",
      "country": "Germany",
      "lat": 50.3356,
      "lng": 6.9475,
      "winner_driver": "Michele Alboreto"
    },
    {
      "name_race": "Austrian Grand Prix",
      "location": "Spielberg",
      "country": "Austria",
      "lat": 47.2197,
      "lng": 14.7647,
      "winner_driver": "Alain Prost"
    },
    {
      "name_race": "Dutch Grand Prix",
      "location": "Zandvoort",
      "country": "Netherlands",
      "lat": 52.3888,
      "lng": 4.54092,
      "winner_driver": "Niki Lauda"
    },
    {
      "name_race": "Italian Grand Prix",
      "location": "Monza",
      "country": "Italy",
      "lat": 45.6156,
      "lng": 9.28111,
      "winner_driver": "Alain Prost"
    },
    {
      "name_race": "Belgian Grand Prix",
      "location": "Spa",
      "country": "Belgium",
      "lat": 50.4372,
      "lng": 5.97139,
      "winner_driver": "Ayrton Senna"
    },
    {
      "name_race": "European Grand Prix",
      "location": "Kent",
      "country": "UK",
      "lat": 51.3569,
      "lng": 0.263056,
      "winner_driver": "Nigel Mansell"
    },
    {
      "name_race": "South African Grand Prix",
      "location": "Midrand",
      "country": "South Africa",
      "lat": -25.9894,
      "lng": 28.0767,
      "winner_driver": "Nigel Mansell"
    },
    {
      "name_race": "Australian Grand Prix",
      "location": "Adelaide",
      "country": "Australia",
      "lat": -34.9272,
      "lng": 138.617,
      "winner_driver": "Keke Rosberg"
    }
  ],
  "1986": [
    {
      "name_race": "Brazilian Grand Prix",
      "location": "Rio de Janeiro",
      "country": "Brazil",
      "lat": -22.9756,
      "lng": -43.395,
      "winner_driver": "Nelson Piquet"
    },
    {
      "name_race": "Spanish Grand Prix",
      "location": "Jerez de la Frontera",
      "country": "Spain",
      "lat": 36.7083,
      "lng": -6.03417,
      "winner_driver": "Ayrton Senna"
    },
    {
      "name_race": "San Marino Grand Prix",
      "location": "Imola",
      "country": "Italy",
      "lat": 44.3439,
      "lng": 11.7167,
      "winner_driver": "Alain Prost"
    },
    {
      "name_race": "Monaco Grand Prix",
      "location": "Monte-Carlo",
      "country": "Monaco",
      "lat": 43.7347,
      "lng": 7.42056,
      "winner_driver": "Alain Prost"
    },
    {
      "name_race": "Belgian Grand Prix",
      "location": "Spa",
      "country": "Belgium",
      "lat": 50.4372,
      "lng": 5.97139,
      "winner_driver": "Nigel Mansell"
    },
    {
      "name_race": "Canadian Grand Prix",
      "location": "Montreal",
      "country": "Canada",
      "lat": 45.5,
      "lng": -73.5228,
      "winner_driver": "Nigel Mansell"
    },
    {
      "name_race": "Detroit Grand Prix",
      "location": "Detroit",
      "country": "USA",
      "lat": 42.3298,
      "lng": -83.0401,
      "winner_driver": "Ayrton Senna"
    },
    {
      "name_race": "French Grand Prix",
      "location": "Le Castellet",
      "country": "France",
      "lat": 43.2506,
      "lng": 5.79167,
      "winner_driver": "Nigel Mansell"
    },
    {
      "name_race": "British Grand Prix",
      "location": "Kent",
      "country": "UK",
      "lat": 51.3569,
      "lng": 0.263056,
      "winner_driver": "Nigel Mansell"
    },
    {
      "name_race": "German Grand Prix",
      "location": "Hockenheim",
      "country": "Germany",
      "lat": 49.3278,
      "lng": 8.56583,
      "winner_driver": "Nelson Piquet"
    },
    {
      "name_race": "Hungarian Grand Prix",
      "location": "Budapest",
      "country": "Hungary",
      "lat": 47.5789,
      "lng": 19.2486,
      "winner_driver": "Nelson Piquet"
    },
    {
      "name_race": "Austrian Grand Prix",
      "location": "Spielberg",
      "country": "Austria",
      "lat": 47.2197,
      "lng": 14.7647,
      "winner_driver": "Alain Prost"
    },
    {
      "name_race": "Italian Grand Prix",
      "location": "Monza",
      "country": "Italy",
      "lat": 45.6156,
      "lng": 9.28111,
      "winner_driver": "Nelson Piquet"
    },
    {
      "name_race": "Portuguese Grand Prix",
      "location": "Estoril",
      "country": "Portugal",
      "lat": 38.7506,
      "lng": -9.39417,
      "winner_driver": "Nigel Mansell"
    },
    {
      "name_race": "Mexican Grand Prix",
      "location": "Mexico City",
      "country": "Mexico",
      "lat": 19.4042,
      "lng": -99.0907,
      "winner_driver": "Gerhard Berger"
    },
    {
      "name_race": "Australian Grand Prix",
      "location": "Adelaide",
      "country": "Australia",
      "lat": -34.9272,
      "lng": 138.617,
      "winner_driver": "Alain Prost"
    }
  ],
  "1987": [
    {
      "name_race": "Brazilian Grand Prix",
      "location": "Rio de Janeiro",
      "country": "Brazil",
      "lat": -22.9756,
      "lng": -43.395,
      "winner_driver": "Alain Prost"
    },
    {
      "name_race": "San Marino Grand Prix",
      "location": "Imola",
      "country": "Italy",
      "lat": 44.3439,
      "lng": 11.7167,
      "winner_driver": "Nigel Mansell"
    },
    {
      "name_race": "Belgian Grand Prix",
      "location": "Spa",
      "country": "Belgium",
      "lat": 50.4372,
      "lng": 5.97139,
      "winner_driver": "Alain Prost"
    },
    {
      "name_race": "Monaco Grand Prix",
      "location": "Monte-Carlo",
      "country": "Monaco",
      "lat": 43.7347,
      "lng": 7.42056,
      "winner_driver": "Ayrton Senna"
    },
    {
      "name_race": "Detroit Grand Prix",
      "location": "Detroit",
      "country": "USA",
      "lat": 42.3298,
      "lng": -83.0401,
      "winner_driver": "Ayrton Senna"
    },
    {
      "name_race": "French Grand Prix",
      "location": "Le Castellet",
      "country": "France",
      "lat": 43.2506,
      "lng": 5.79167,
      "winner_driver": "Nigel Mansell"
    },
    {
      "name_race": "British Grand Prix",
      "location": "Silverstone",
      "country": "UK",
      "lat": 52.0786,
      "lng": -1.01694,
      "winner_driver": "Nigel Mansell"
    },
    {
      "name_race": "German Grand Prix",
      "location": "Hockenheim",
      "country": "Germany",
      "lat": 49.3278,
      "lng": 8.56583,
      "winner_driver": "Nelson Piquet"
    },
    {
      "name_race": "Hungarian Grand Prix",
      "location": "Budapest",
      "country": "Hungary",
      "lat": 47.5789,
      "lng": 19.2486,
      "winner_driver": "Nelson Piquet"
    },
    {
      "name_race": "Austrian Grand Prix",
      "location": "Spielberg",
      "country": "Austria",
      "lat": 47.2197,
      "lng": 14.7647,
      "winner_driver": "Nigel Mansell"
    },
    {
      "name_race": "Italian Grand Prix",
      "location": "Monza",
      "country": "Italy",
      "lat": 45.6156,
      "lng": 9.28111,
      "winner_driver": "Nelson Piquet"
    },
    {
      "name_race": "Portuguese Grand Prix",
      "location": "Estoril",
      "country": "Portugal",
      "lat": 38.7506,
      "lng": -9.39417,
      "winner_driver": "Alain Prost"
    },
    {
      "name_race": "Spanish Grand Prix",
      "location": "Jerez de la Frontera",
      "country": "Spain",
      "lat": 36.7083,
      "lng": -6.03417,
      "winner_driver": "Nigel Mansell"
    },
    {
      "name_race": "Mexican Grand Prix",
      "location": "Mexico City",
      "country": "Mexico",
      "lat": 19.4042,
      "lng": -99.0907,
      "winner_driver": "Nigel Mansell"
    },
    {
      "name_race": "Japanese Grand Prix",
      "location": "Suzuka",
      "country": "Japan",
      "lat": 34.8431,
      "lng": 136.541,
      "winner_driver": "Gerhard Berger"
    },
    {
      "name_race": "Australian Grand Prix",
      "location": "Adelaide",
      "country": "Australia",
      "lat": -34.9272,
      "lng": 138.617,
      "winner_driver": "Gerhard Berger"
    }
  ],
  "1988": [
    {
      "name_race": "Brazilian Grand Prix",
      "location": "Rio de Janeiro",
      "country": "Brazil",
      "lat": -22.9756,
      "lng": -43.395,
      "winner_driver": "Alain Prost"
    },
    {
      "name_race": "San Marino Grand Prix",
      "location": "Imola",
      "country": "Italy",
      "lat": 44.3439,
      "lng": 11.7167,
      "winner_driver": "Ayrton Senna"
    },
    {
      "name_race": "Monaco Grand Prix",
      "location": "Monte-Carlo",
      "country": "Monaco",
      "lat": 43.7347,
      "lng": 7.42056,
      "winner_driver": "Alain Prost"
    },
    {
      "name_race": "Mexican Grand Prix",
      "location": "Mexico City",
      "country": "Mexico",
      "lat": 19.4042,
      "lng": -99.0907,
      "winner_driver": "Alain Prost"
    },
    {
      "name_race": "Canadian Grand Prix",
      "location": "Montreal",
      "country": "Canada",
      "lat": 45.5,
      "lng": -73.5228,
      "winner_driver": "Ayrton Senna"
    },
    {
      "name_race": "Detroit Grand Prix",
      "location": "Detroit",
      "country": "USA",
      "lat": 42.3298,
      "lng": -83.0401,
      "winner_driver": "Ayrton Senna"
    },
    {
      "name_race": "French Grand Prix",
      "location": "Le Castellet",
      "country": "France",
      "lat": 43.2506,
      "lng": 5.79167,
      "winner_driver": "Alain Prost"
    },
    {
      "name_race": "British Grand Prix",
      "location": "Silverstone",
      "country": "UK",
      "lat": 52.0786,
      "lng": -1.01694,
      "winner_driver": "Ayrton Senna"
    },
    {
      "name_race": "German Grand Prix",
      "location": "Hockenheim",
      "country": "Germany",
      "lat": 49.3278,
      "lng": 8.56583,
      "winner_driver": "Ayrton Senna"
    },
    {
      "name_race": "Hungarian Grand Prix",
      "location": "Budapest",
      "country": "Hungary",
      "lat": 47.5789,
      "lng": 19.2486,
      "winner_driver": "Ayrton Senna"
    },
    {
      "name_race": "Belgian Grand Prix",
      "location": "Spa",
      "country": "Belgium",
      "lat": 50.4372,
      "lng": 5.97139,
      "winner_driver": "Ayrton Senna"
    },
    {
      "name_race": "Italian Grand Prix",
      "location": "Monza",
      "country": "Italy",
      "lat": 45.6156,
      "lng": 9.28111,
      "winner_driver": "Gerhard Berger"
    },
    {
      "name_race": "Portuguese Grand Prix",
      "location": "Estoril",
      "country": "Portugal",
      "lat": 38.7506,
      "lng": -9.39417,
      "winner_driver": "Alain Prost"
    },
    {
      "name_race": "Spanish Grand Prix",
      "location": "Jerez de la Frontera",
      "country": "Spain",
      "lat": 36.7083,
      "lng": -6.03417,
      "winner_driver": "Alain Prost"
    },
    {
      "name_race": "Japanese Grand Prix",
      "location": "Suzuka",
      "country": "Japan",
      "lat": 34.8431,
      "lng": 136.541,
      "winner_driver": "Ayrton Senna"
    },
    {
      "name_race": "Australian Grand Prix",
      "location": "Adelaide",
      "country": "Australia",
      "lat": -34.9272,
      "lng": 138.617,
      "winner_driver": "Alain Prost"
    }
  ],
  "1989": [
    {
      "name_race": "Brazilian Grand Prix",
      "location": "Rio de Janeiro",
      "country": "Brazil",
      "lat": -22.9756,
      "lng": -43.395,
      "winner_driver": "Nigel Mansell"
    },
    {
      "name_race": "San Marino Grand Prix",
      "location": "Imola",
      "country": "Italy",
      "lat": 44.3439,
      "lng": 11.7167,
      "winner_driver": "Ayrton Senna"
    },
    {
      "name_race": "Monaco Grand Prix",
      "location": "Monte-Carlo",
      "country": "Monaco",
      "lat": 43.7347,
      "lng": 7.42056,
      "winner_driver": "Ayrton Senna"
    },
    {
      "name_race": "Mexican Grand Prix",
      "location": "Mexico City",
      "country": "Mexico",
      "lat": 19.4042,
      "lng": -99.0907,
      "winner_driver": "Ayrton Senna"
    },
    {
      "name_race": "United States Grand Prix",
      "location": "Phoenix",
      "country": "USA",
      "lat": 33.4479,
      "lng": -112.075,
      "winner_driver": "Alain Prost"
    },
    {
      "name_race": "Canadian Grand Prix",
      "location": "Montreal",
      "country": "Canada",
      "lat": 45.5,
      "lng": -73.5228,
      "winner_driver": "Thierry Boutsen"
    },
    {
      "name_race": "French Grand Prix",
      "location": "Le Castellet",
      "country": "France",
      "lat": 43.2506,
      "lng": 5.79167,
      "winner_driver": "Alain Prost"
    },
    {
      "name_race": "British Grand Prix",
      "location": "Silverstone",
      "country": "UK",
      "lat": 52.0786,
      "lng": -1.01694,
      "winner_driver": "Alain Prost"
    },
    {
      "name_race": "German Grand Prix",
      "location": "Hockenheim",
      "country": "Germany",
      "lat": 49.3278,
      "lng": 8.56583,
      "winner_driver": "Ayrton Senna"
    },
    {
      "name_race": "Hungarian Grand Prix",
      "location": "Budapest",
      "country": "Hungary",
      "lat": 47.5789,
      "lng": 19.2486,
      "winner_driver": "Nigel Mansell"
    },
    {
      "name_race": "Belgian Grand Prix",
      "location": "Spa",
      "country": "Belgium",
      "lat": 50.4372,
      "lng": 5.97139,
      "winner_driver": "Ayrton Senna"
    },
    {
      "name_race": "Italian Grand Prix",
      "location": "Monza",
      "country": "Italy",
      "lat": 45.6156,
      "lng": 9.28111,
      "winner_driver": "Alain Prost"
    },
    {
      "name_race": "Portuguese Grand Prix",
      "location": "Estoril",
      "country": "Portugal",
      "lat": 38.7506,
      "lng": -9.39417,
      "winner_driver": "Gerhard Berger"
    },
    {
      "name_race": "Spanish Grand Prix",
      "location": "Jerez de la Frontera",
      "country": "Spain",
      "lat": 36.7083,
      "lng": -6.03417,
      "winner_driver": "Ayrton Senna"
    },
    {
      "name_race": "Japanese Grand Prix",
      "location": "Suzuka",
      "country": "Japan",
      "lat": 34.8431,
      "lng": 136.541,
      "winner_driver": "Alessandro Nannini"
    },
    {
      "name_race": "Australian Grand Prix",
      "location": "Adelaide",
      "country": "Australia",
      "lat": -34.9272,
      "lng": 138.617,
      "winner_driver": "Thierry Boutsen"
    }
  ],
  "1990": [
    {
      "name_race": "United States Grand Prix",
      "location": "Phoenix",
      "country": "USA",
      "lat": 33.4479,
      "lng": -112.075,
      "winner_driver": "Ayrton Senna"
    },
    {
      "name_race": "Brazilian Grand Prix",
      "location": "São Paulo",
      "country": "Brazil",
      "lat": -23.7036,
      "lng": -46.6997,
      "winner_driver": "Alain Prost"
    },
    {
      "name_race": "San Marino Grand Prix",
      "location": "Imola",
      "country": "Italy",
      "lat": 44.3439,
      "lng": 11.7167,
      "winner_driver": "Riccardo Patrese"
    },
    {
      "name_race": "Monaco Grand Prix",
      "location": "Monte-Carlo",
      "country": "Monaco",
      "lat": 43.7347,
      "lng": 7.42056,
      "winner_driver": "Ayrton Senna"
    },
    {
      "name_race": "Canadian Grand Prix",
      "location": "Montreal",
      "country": "Canada",
      "lat": 45.5,
      "lng": -73.5228,
      "winner_driver": "Ayrton Senna"
    },
    {
      "name_race": "Mexican Grand Prix",
      "location": "Mexico City",
      "country": "Mexico",
      "lat": 19.4042,
      "lng": -99.0907,
      "winner_driver": "Alain Prost"
    },
    {
      "name_race": "French Grand Prix",
      "location": "Le Castellet",
      "country": "France",
      "lat": 43.2506,
      "lng": 5.79167,
      "winner_driver": "Alain Prost"
    },
    {
      "name_race": "British Grand Prix",
      "location": "Silverstone",
      "country": "UK",
      "lat": 52.0786,
      "lng": -1.01694,
      "winner_driver": "Alain Prost"
    },
    {
      "name_race": "German Grand Prix",
      "location": "Hockenheim",
      "country": "Germany",
      "lat": 49.3278,
      "lng": 8.56583,
      "winner_driver": "Ayrton Senna"
    },
    {
      "name_race": "Hungarian Grand Prix",
      "location": "Budapest",
      "country": "Hungary",
      "lat": 47.5789,
      "lng": 19.2486,
      "winner_driver": "Thierry Boutsen"
    },
    {
      "name_race": "Belgian Grand Prix",
      "location": "Spa",
      "country": "Belgium",
      "lat": 50.4372,
      "lng": 5.97139,
      "winner_driver": "Ayrton Senna"
    },
    {
      "name_race": "Italian Grand Prix",
      "location": "Monza",
      "country": "Italy",
      "lat": 45.6156,
      "lng": 9.28111,
      "winner_driver": "Ayrton Senna"
    },
    {
      "name_race": "Portuguese Grand Prix",
      "location": "Estoril",
      "country": "Portugal",
      "lat": 38.7506,
      "lng": -9.39417,
      "winner_driver": "Nigel Mansell"
    },
    {
      "name_race": "Spanish Grand Prix",
      "location": "Jerez de la Frontera",
      "country": "Spain",
      "lat": 36.7083,
      "lng": -6.03417,
      "winner_driver": "Alain Prost"
    },
    {
      "name_race": "Japanese Grand Prix",
      "location": "Suzuka",
      "country": "Japan",
      "lat": 34.8431,
      "lng": 136.541,
      "winner_driver": "Nelson Piquet"
    },
    {
      "name_race": "Australian Grand Prix",
      "location": "Adelaide",
      "country": "Australia",
      "lat": -34.9272,
      "lng": 138.617,
      "winner_driver": "Nelson Piquet"
    }
  ],
  "1991": [
    {
      "name_race": "United States Grand Prix",
      "location": "Phoenix",
      "country": "USA",
      "lat": 33.4479,
      "lng": -112.075,
      "winner_driver": "Ayrton Senna"
    },
    {
      "name_race": "Brazilian Grand Prix",
      "location": "São Paulo",
      "country": "Brazil",
      "lat": -23.7036,
      "lng": -46.6997,
      "winner_driver": "Ayrton Senna"
    },
    {
      "name_race": "San Marino Grand Prix",
      "location": "Imola",
      "country": "Italy",
      "lat": 44.3439,
      "lng": 11.7167,
      "winner_driver": "Ayrton Senna"
    },
    {
      "name_race": "Monaco Grand Prix",
      "location": "Monte-Carlo",
      "country": "Monaco",
      "lat": 43.7347,
      "lng": 7.42056,
      "winner_driver": "Ayrton Senna"
    },
    {
      "name_race": "Canadian Grand Prix",
      "location": "Montreal",
      "country": "Canada",
      "lat": 45.5,
      "lng": -73.5228,
      "winner_driver": "Nelson Piquet"
    },